[{"name":"Au f\u00fbt et \u00e0 mesure","address":"2 Rue D'hauteville","cp":"75010","city":"Paris","lat":48.8703489,"lng":2.3496074},{"name":"Pili Pili","address":"70 Rue Jean pierre timbaud","cp":"75011","city":"Paris","lat":48.8663239,"lng":2.3755038},{"name":"Chez Prosper","address":"7 Avenue du tr\u00f4ne","cp":"75011","city":"Paris","lat":48.8486541,"lng":2.3982421},{"name":"Barrio Latino","address":"46-48 Rue du Faubourg Saint-Antoine","cp":"75012","city":"Paris","lat":48.8519815,"lng":2.3725256},{"name":"Cuba Compagnie Caf\u00e9 - 11 \u00e8me","address":"48 Boulevard Beaumarchais","cp":"75011","city":"Paris","lat":48.8571456,"lng":2.3684785},{"name":"Le Cabinet de sa majest\u00e9","address":"4 Rue de la Fontaine au Roi","cp":"75011","city":"Paris","lat":48.8685364,"lng":2.3685568},{"name":"Shannon Pub","address":"23 Rue Br\u00e9a","cp":"75006","city":"Paris","lat":48.842539,"lng":2.3299869},{"name":"Riad Nejma","address":"141 Rue Saint martin","cp":"75004","city":"Paris","lat":48.8614913,"lng":2.3513056},{"name":"Comptoir Moderne","address":"26 Rue De la croix-nivert","cp":"75015","city":"Paris","lat":48.8468099,"lng":2.2995309},{"name":"Delaville Caf\u00e9","address":"34, Boulevard Bonne-Nouvelle","cp":"75010","city":"Paris","lat":48.8708722,"lng":2.349391},{"name":"La Popina","address":"88 Rue Saint-Maur","cp":"75011","city":"Paris","lat":48.8649307,"lng":2.3779145},{"name":"Le Kong","address":"1 Rue du Pont Neuf","cp":"75001","city":"Paris","lat":48.8584802,"lng":2.3426029},{"name":"Mama Shelter - Restaurant et Bars","address":"109, Rue de Bagnolet","cp":"75020","city":"Paris","lat":48.8597079,"lng":2.4028325},{"name":"P\u00e9niche Antipode","address":"55 Quai de la Seine","cp":"75019","city":"Paris","lat":48.887175,"lng":2.3749483},{"name":"Le Belushi's","address":"159 Rue de Crim\u00e9e","cp":"75019","city":"Paris","lat":48.8885115,"lng":2.3790134},{"name":"Le Belushi's","address":"159 Rue de Crim\u00e9e","cp":"75019","city":"Paris","lat":48.8885115,"lng":2.3790134},{"name":"Buddha Bar","address":"8 Rue Boissy d'Anglas","cp":"75008","city":"Paris","lat":48.8678954,"lng":2.3213146},{"name":"Caf\u00e9 de l'Industrie","address":"17, Rue Saint-Sabin","cp":"75011","city":"Paris","lat":48.8555768,"lng":2.3716631},{"name":"Le Fumoir","address":"6, Rue de l'Amiral Coligny","cp":"75001","city":"Paris","lat":48.8604339,"lng":2.3407527},{"name":"Le Train Bleu","address":"Place Louis Armand","cp":"75012","city":"Paris","lat":48.8448789,"lng":2.3728401},{"name":"Brasserie Mollard","address":"115, Rue Saint-Lazare","cp":"75008","city":"Paris","lat":48.8752362,"lng":2.3258352},{"name":"Saint George's Tavern","address":"46 Rue Du faubourg montmartre","cp":"75009","city":"Paris","lat":48.8747212,"lng":2.3415403},{"name":"Bar du March\u00e9","address":"53 Rue Vieille du Temple","cp":"75004","city":"Paris","lat":48.8585817,"lng":2.358337},{"name":"Au Go\u00fbt du monde","address":"3 Rue De la coll\u00e9giale","cp":"75005","city":"Paris","lat":48.8374156,"lng":2.3523675},{"name":"Bar Three","address":"3, Rue de l'Ancienne Com\u00e9die","cp":"75006","city":"Paris","lat":48.8534787,"lng":2.3384766},{"name":"Le Caf\u00e9 des Initi\u00e9s","address":"3 Place Des deux ecus","cp":"75001","city":"Paris","lat":48.8630214,"lng":2.3415377},{"name":"La Casa Pepe","address":"5 Rue Mouffetard","cp":"75005","city":"Paris","lat":48.8448738,"lng":2.3492684},{"name":"La S\u00e9r\u00e9na","address":"92 Rue De richelieu","cp":"75002","city":"Paris","lat":48.8702536,"lng":2.3397341},{"name":"La Gare","address":"19 Chauss\u00e9e de la Muette","cp":"75016","city":"Paris","lat":48.8581548,"lng":2.272622},{"name":"Sun Caf\u00e9","address":"14 Boulevard S\u00e9bastopol","cp":"75004","city":"Paris","lat":48.8596072,"lng":2.3490559},{"name":"La Malle","address":"3 Rue Rodier","cp":"75009","city":"Paris","lat":48.8773268,"lng":2.3422695},{"name":"Les Pi\u00e9tons","address":"8, Rue des Lombards","cp":"75004","city":"Paris","lat":48.8591548,"lng":2.3498711},{"name":"Le Players","address":"161, Rue Montmartre","cp":"75002","city":"Paris","lat":48.8709916,"lng":2.342702},{"name":"Le Memphis","address":"3, Impasse Bonne-Nouvelle","cp":"75010","city":"Paris","lat":48.8706386,"lng":2.350575},{"name":"Why Paris","address":"60 Rue Jean jacques rousseau","cp":"75001","city":"Paris","lat":48.8640001,"lng":2.3436599},{"name":"Le Paris Montparnasse","address":"43 Avenue du Maine","cp":"75014","city":"Paris","lat":48.8409017,"lng":2.3218248},{"name":"Bochica","address":"6 Rue Rochebrune","cp":"75011","city":"Paris","lat":48.8607619,"lng":2.3789617},{"name":"Le Carlie","address":"177 Rue Saint-martin","cp":"75003","city":"Paris","lat":48.862494,"lng":2.3521478},{"name":"Angelina - rue de Rivoli","address":"226 Rue de Rivoli","cp":"75001","city":"Paris","lat":48.8649357,"lng":2.3284259},{"name":"MKP Op\u00e9ra","address":"4 Rue Daunou","cp":"75002","city":"Paris","lat":48.8691927,"lng":2.3324426},{"name":"Tout le Monde en Parle","address":"4 Rue du D\u00e9part","cp":"75015","city":"Paris","lat":48.8431541,"lng":2.3239363},{"name":"Le Georges","address":"19 Rue Beaubourg","cp":"75004","city":"Paris","lat":48.8607435,"lng":2.3519694},{"name":"HeureSup","address":"299 Rue Lecourbe","cp":"75015","city":"Paris","lat":48.8377743,"lng":2.2869505},{"name":"Le Ch\u00e2teau des Lys","address":"103, Rue Marcadet","cp":"75018","city":"Paris","lat":48.8910882,"lng":2.3434036},{"name":"Hypnose Bar","address":"25 Rue De trevise","cp":"75009","city":"Paris","lat":48.8742343,"lng":2.3452729},{"name":"Hypnose Bar","address":"25 Rue De trevise","cp":"75009","city":"Paris","lat":48.8742343,"lng":2.3452729},{"name":"Caf\u00e9 Oz Denfert Rochereau","address":"3 Place Denfert Rochereau","cp":"75014","city":"Paris","lat":48.8331165,"lng":2.3336856},{"name":"Le Havanita Caf\u00e9","address":"11, Rue de Lappe","cp":"75011","city":"Paris","lat":48.854028,"lng":2.3722393},{"name":"Mad Maker Pub","address":"22 Rue Cujas","cp":"75005","city":"Paris","lat":48.8482426,"lng":2.341806},{"name":"Cr\u00eaperie Suzette","address":"117 Boulevard de grenelle","cp":"75015","city":"Paris","lat":48.8490914,"lng":2.2987172},{"name":"Le Bouillon St Stef","address":"96 Rue De m\u00e9nilmontant","cp":"75020","city":"Paris","lat":48.8690714,"lng":2.39229},{"name":"Le Narjisse","address":"26 Rue Brey","cp":"75017","city":"Paris","lat":48.8770025,"lng":2.2952785},{"name":"Los Mexicanos","address":"10, Rue Papillon","cp":"75009","city":"Paris","lat":48.8763109,"lng":2.3474333},{"name":"Les Tonneaux Parisiens","address":"12 Rue De mazagran","cp":"75010","city":"Paris","lat":48.8705101,"lng":2.3518565},{"name":"Le Loir dans la Th\u00e9i\u00e8re","address":"3, Rue des Rosiers","cp":"75004","city":"Paris","lat":48.8562426,"lng":2.3610262},{"name":"Sans G\u00eane Batignolles","address":"112 Rue Legendre","cp":"75017","city":"Paris","lat":48.8881021,"lng":2.3210658},{"name":"Caf\u00e9 Jardin l'Arrosoir","address":"75 Avenue Daumesnil","cp":"75012","city":"Paris","lat":48.846243,"lng":2.3775222},{"name":"Les Coulisses","address":"1 Rue Cheroy","cp":"75017","city":"Paris","lat":48.8819236,"lng":2.3188927},{"name":"L'Alimentation G\u00e9n\u00e9rale","address":"64, Rue Jean-Pierre Timbaud","cp":"75011","city":"Paris","lat":48.8667163,"lng":2.3744286},{"name":"Bistrot des Dames","address":"18, Rue des Dames","cp":"75017","city":"Paris","lat":48.8851408,"lng":2.3248859},{"name":"Caf\u00e9 Moderne - Rue Keller","address":"19 Rue Keller","cp":"75011","city":"Paris","lat":48.8548424,"lng":2.3755126},{"name":"LR - Lounge Royal","address":"9 Rue Du g\u00e9n\u00e9ral de lanrezac","cp":"75017","city":"Paris","lat":48.8764782,"lng":2.2940899},{"name":"Habemus Bar restaurant","address":"13 Rue Monsigny","cp":"75002","city":"Paris","lat":48.8691377,"lng":2.335395},{"name":"La Taverne du Cap Vert et du Br\u00e9sil","address":"25 Rue Daubenton","cp":"75005","city":"Paris","lat":48.8411686,"lng":2.3529402},{"name":"Au Diable des Lombards","address":"64 Rue des Lombards","cp":"75001","city":"Paris","lat":48.859981,"lng":2.3475078},{"name":"Le Board","address":"13 Rue Princesse","cp":"75006","city":"Paris","lat":48.8520683,"lng":2.3347858},{"name":"Studio 5 bar & burger","address":"92 Boulevard Saint germain","cp":"75005","city":"Paris","lat":48.8512781,"lng":2.3442926},{"name":"The Frog at Bercy Village","address":"25 Cour Saint-Emilion","cp":"75012","city":"Paris","lat":48.8327432,"lng":2.3860483},{"name":"L'Attrape-Coeurs Bar","address":"3 Rue Ramey","cp":"75018","city":"Paris","lat":48.8871116,"lng":2.3474839},{"name":"Kabanito caf\u00e9 cocktail","address":"11 Rue des Tournelles","cp":"75004","city":"Paris","lat":48.8542756,"lng":2.3670459},{"name":"Le Gymnase","address":"44, Boulevard Bonne Nouvelle","cp":"75010","city":"Paris","lat":48.8709059,"lng":2.3482206},{"name":"Le Caf\u00e9 Charbon","address":"109, Rue Oberkampf","cp":"75011","city":"Paris","lat":48.865786,"lng":2.3776218},{"name":"Au Petit Fer \u00e0 Cheval","address":"30 Rue Vieille du Temple","cp":"75004","city":"Paris","lat":48.8573082,"lng":2.35809},{"name":"Voulez-vous","address":"18 Rue Du temple","cp":"75004","city":"Paris","lat":48.8585013,"lng":2.3536008},{"name":"BairRo aLTo","address":"37-39 Rue Des petites \u00e9curies","cp":"75010","city":"Paris","lat":48.8738211,"lng":2.3500028},{"name":"BairRo aLTo","address":"37-39 Rue Des petites \u00e9curies","cp":"75010","city":"Paris","lat":48.8738211,"lng":2.3500028},{"name":"Pub Fiction","address":"76 Avenue De la r\u00e9publique","cp":"75011","city":"Paris","lat":48.8643011,"lng":2.3787669},{"name":"Yellow mad monkey","address":"8 Rue De lappe","cp":"75011","city":"Paris","lat":48.8540232,"lng":2.3717803},{"name":"Le Tribar","address":"20 Rue De lappe","cp":"75011","city":"Paris","lat":48.8536006,"lng":2.3723703},{"name":"Les Marronniers","address":"18 Rue des Archives","cp":"75004","city":"Paris","lat":48.8578323,"lng":2.3547789},{"name":"Le P\u00e8re Fouettard","address":"9 Rue Pierre lescot","cp":"75001","city":"Paris","lat":48.8625537,"lng":2.3484076},{"name":"Le Crocodile","address":"6, Rue Royer-Collard","cp":"75005","city":"Paris","lat":48.8457998,"lng":2.3421666},{"name":"La V\u00e9nus Noire","address":"25 Rue de l'Hirondelle","cp":"75006","city":"Paris","lat":48.8535673,"lng":2.3429975},{"name":"Shake N'Smash","address":"87 Rue De turbigo","cp":"75003","city":"Paris","lat":48.866808,"lng":2.361149},{"name":"Joe Allen","address":"30, Rue Pierre Lescot","cp":"75001","city":"Paris","lat":48.863554,"lng":2.3490511},{"name":"L'Alcazar","address":"62 Rue Mazarine","cp":"75006","city":"Paris","lat":48.8545887,"lng":2.3378295},{"name":"Caf\u00e9 Rubis","address":"165, Avenue du Maine","cp":"75014","city":"Paris","lat":48.8329268,"lng":2.3250928},{"name":"Maria Loca","address":"31 Boulevard Henri iv","cp":"75004","city":"Paris","lat":48.852268,"lng":2.3653657},{"name":"L'Enoteca","address":"25, Rue Charles V","cp":"75004","city":"Paris","lat":48.8533138,"lng":2.3618052},{"name":"Les Editeurs","address":"4 Carrefour de l'Od\u00e9on","cp":"75006","city":"Paris","lat":48.8517601,"lng":2.3388809},{"name":"Salon de Th\u00e9 - Delyan","address":"8, Rue Saint Martin","cp":"75004","city":"Paris","lat":48.8574331,"lng":2.3493369},{"name":"Le Petit Marcel","address":"65, Rue Rambuteau","cp":"75004","city":"Paris","lat":48.8617211,"lng":2.3511161},{"name":"L'Etage","address":"77 Rue Du faubourg du temple","cp":"75010","city":"Paris","lat":48.8703568,"lng":2.3713338},{"name":"Wine by one","address":"9 Rue des Capucines","cp":"75001","city":"Paris","lat":48.8686539,"lng":2.329434},{"name":"Chez Toi ou Chez Moi","address":"3 Rue Du g\u00e9n\u00e9ral renault","cp":"75011","city":"Paris","lat":48.8614622,"lng":2.3779976},{"name":"La Maison Blanche","address":"15 Avenue Montaigne","cp":"75008","city":"Paris","lat":48.8659169,"lng":2.3027936},{"name":"Breakfast in America - Rue des Ecoles","address":"17, Rue des Ecoles","cp":"75005","city":"Paris","lat":48.8477545,"lng":2.3511123},{"name":"Le Bar Bat","address":"23, Rue de Lappe","cp":"75011","city":"Paris","lat":48.8537454,"lng":2.3728703},{"name":"La Rotonde Montparnasse","address":"105 Boulevard du Montparnasse","cp":"75006","city":"Paris","lat":48.8422055,"lng":2.3292291},{"name":"Marlusse et Lapin","address":"14 Rue Germain pilon","cp":"75018","city":"Paris","lat":48.8837275,"lng":2.3367626},{"name":"Le Caf\u00e9 Livres","address":"10 Rue Saint-Martin","cp":"75004","city":"Paris","lat":48.8574995,"lng":2.3496464},{"name":"O'Kubi Caff\u00e9","address":"219 Rue Saint maur","cp":"75010","city":"Paris","lat":48.8731585,"lng":2.3704656},{"name":"Le Ballroom du Beef-Club","address":"52 Rue Jean-Jacques Rousseau","cp":"75001","city":"Paris","lat":48.8637039,"lng":2.3431395},{"name":"Bi\u00e8re et Malt","address":"4 Rue Poissonni\u00e8re","cp":"75002","city":"Paris","lat":48.8686836,"lng":2.347776},{"name":"Ikra","address":"119 Boulevard Raspail","cp":"75006","city":"Paris","lat":48.8455958,"lng":2.3289186},{"name":"Bi\u00e8re et Malt","address":"4 Rue Poissonni\u00e8re","cp":"75002","city":"Paris","lat":48.8686836,"lng":2.347776},{"name":"Ikra","address":"119 Boulevard Raspail","cp":"75006","city":"Paris","lat":48.8455958,"lng":2.3289186},{"name":"Moon Roof","address":"34 Quai D'austerlitz","cp":"75013","city":"Paris","lat":48.8408473,"lng":2.3696501},{"name":"IPN","address":"23 Rue Mouffetard","cp":"75005","city":"Paris","lat":48.8441647,"lng":2.3495214},{"name":"Le Sergent Recruteur","address":"41 Rue Saint-Louis en l'Ile","cp":"75004","city":"Paris","lat":48.8518839,"lng":2.3559293},{"name":"Le Loup Blanc","address":"42, Rue Tiquetonne","cp":"75002","city":"Paris","lat":48.8648359,"lng":2.3474789},{"name":"Carpe Diem Caf\u00e9","address":"21, Rue des Halles","cp":"75001","city":"Paris","lat":48.8605195,"lng":2.3458789},{"name":"La Perla","address":"26, Rue Fran\u00e7ois Miron","cp":"75004","city":"Paris","lat":48.8557402,"lng":2.3560882},{"name":"Le Caf\u00e9 des Anges","address":"66, Rue de la Roquette","cp":"75011","city":"Paris","lat":48.8553911,"lng":2.3744629},{"name":"Le Djoon - Club","address":"22 Boulevard Vincent Auriol","cp":"75013","city":"Paris","lat":48.8366809,"lng":2.3718387},{"name":"Sterne","address":"36 Rue de la Condamine","cp":"75017","city":"Paris","lat":48.8868464,"lng":2.3224755},{"name":"Panfoulia","address":"7, Rue Sainte Croix la Bretonnerie","cp":"75004","city":"Paris","lat":48.8578243,"lng":2.3568328},{"name":"Le Mammouth Bar","address":"116 Rue Amelot","cp":"75011","city":"Paris","lat":48.8637311,"lng":2.3671884},{"name":"Le Procope","address":"13 Rue de l'Ancienne Com\u00e9die","cp":"75006","city":"Paris","lat":48.8530598,"lng":2.3388011},{"name":"Chez Justine","address":"96 Rue Oberkampf","cp":"75011","city":"Paris","lat":48.8657208,"lng":2.377669},{"name":"Le Comptoir du 7\u00e8me","address":"39, Avenue de la Motte Picquet","cp":"75007","city":"Paris","lat":48.854601,"lng":2.3064987},{"name":"Chez Gudule","address":"58, Boulevard de Picpus","cp":"75012","city":"Paris","lat":48.8440731,"lng":2.402131},{"name":"Le Balbuzard Caf\u00e9","address":"54, Rue Ren\u00e9 Boulanger","cp":"75010","city":"Paris","lat":48.869,"lng":2.3595125},{"name":"Iguana caf\u00e9","address":"15 , Rue de la Roquette","cp":"75011","city":"Paris","lat":48.8543006,"lng":2.3712371},{"name":"Les Sans-Culottes","address":"27, Rue de Lappe","cp":"75011","city":"Paris","lat":48.8536381,"lng":2.3730553},{"name":"Chacha Club","address":"47 Rue Berger","cp":"75001","city":"Paris","lat":48.8621282,"lng":2.3422869},{"name":"Earth's Kitchen","address":"5 Rue Daunou","cp":"75002","city":"Paris","lat":48.869219,"lng":2.3322079},{"name":"Caf\u00e9 Gladines","address":"30 Rue des Cinq Diamants","cp":"75013","city":"Paris","lat":48.8287637,"lng":2.3506086},{"name":"La Taverne du Croissant","address":"146 Rue Montmartre","cp":"75002","city":"Paris","lat":48.8692932,"lng":2.3432221},{"name":"Le Schmuck","address":"1 Rue de Cond\u00e9","cp":"75006","city":"Paris","lat":48.8517419,"lng":2.3384311},{"name":"Caf\u00e9 Pinson - 3\u00e8me arrondissement","address":"6 Rue du Forez","cp":"75003","city":"Paris","lat":48.863649,"lng":2.3631508},{"name":"Belmont","address":"86 Rue R\u00e9aumur","cp":"75002","city":"Paris","lat":48.8667825,"lng":2.3500615},{"name":"Corcoran's Grands Boulevards","address":"23, Boulevard Poissoni\u00e8re","cp":"75002","city":"Paris","lat":48.8709491,"lng":2.3440674},{"name":"Zango - Centre","address":"15 Rue du Cygne","cp":"75001","city":"Paris","lat":48.8632933,"lng":2.3488879},{"name":"La Cantine du Faubourg","address":"105 Rue du Faubourg Saint Honor\u00e9","cp":"75008","city":"Paris","lat":48.8725694,"lng":2.3112295},{"name":"La Cantine du Faubourg","address":"105 Rue du Faubourg Saint Honor\u00e9","cp":"75008","city":"Paris","lat":48.8725694,"lng":2.3112295},{"name":"La Bellevilloise","address":"19-21 Rue Boyer","cp":"75020","city":"Paris","lat":48.8683252,"lng":2.3919799},{"name":"Le Bizen","address":"111, Rue R\u00e9aumur","cp":"75002","city":"Paris","lat":48.8681646,"lng":2.3435818},{"name":"L'Atmosph\u00e8re","address":"49 Rue Lucien Sampaix","cp":"75010","city":"Paris","lat":48.8744073,"lng":2.3625419},{"name":"L'Oiseau Bariol\u00e9","address":"16 Rue Sainte Croix Bretonnerie","cp":"75004","city":"Paris","lat":48.8581211,"lng":2.3567532},{"name":"Le Globo","address":"8, Boulevard de Strasbourg","cp":"75010","city":"Paris","lat":48.8700798,"lng":2.354673},{"name":"Le Ragueneau","address":"202 Rue Saint-honor\u00e9","cp":"75001","city":"Paris","lat":48.8628402,"lng":2.337756},{"name":"Le Doobie's","address":"2, Rue Robert Estienne","cp":"75008","city":"Paris","lat":48.8691312,"lng":2.3044845},{"name":"Ladur\u00e9e - Bonaparte","address":"21, Rue Bonaparte","cp":"75006","city":"Paris","lat":48.8555483,"lng":2.3340393},{"name":"Chez Margot","address":"25 bis Boulevard Henri IV","cp":"75004","city":"Paris","lat":48.8519677,"lng":2.3646177},{"name":"Bar Les Pirates","address":"88 Rue Oberkampf","cp":"75011","city":"Paris","lat":48.8653996,"lng":2.3767323},{"name":"La Patache","address":"60, Rue de Lancry","cp":"75010","city":"Paris","lat":48.8725991,"lng":2.3636089},{"name":"Caf\u00e9 Martin","address":"2, Place Martin Nadaud","cp":"75020","city":"Paris","lat":48.8651843,"lng":2.3950202},{"name":"Le Wildrik","address":"20 Rue de Picardie","cp":"75003","city":"Paris","lat":48.8636941,"lng":2.3627141},{"name":"Com\u00e9die Caf\u00e9","address":"31 Rue Pierre Fontaine","cp":"75009","city":"Paris","lat":48.8826625,"lng":2.3330801},{"name":"Le Tiny Caf\u00e9","address":"11 Rue Daval","cp":"75011","city":"Paris","lat":48.855056,"lng":2.3706048},{"name":"Haut les Coeurs","address":"72 Boulevard de M\u00e9nilmontant","cp":"75020","city":"Paris","lat":48.8641579,"lng":2.3866829},{"name":"Le Coupe-Gorge","address":"2 Rue De la coutellerie","cp":"75004","city":"Paris","lat":48.8574824,"lng":2.3514532},{"name":"Au Pied de Cochon","address":"6, Rue Coquilli\u00e8re","cp":"75001","city":"Paris","lat":48.8633834,"lng":2.3437069},{"name":"Sir Winston","address":"5, Rue de Presbourg","cp":"75016","city":"Paris","lat":48.8722646,"lng":2.2951172},{"name":"La Fourmi Ail\u00e9e","address":"8 Rue du Fouarre","cp":"75005","city":"Paris","lat":48.8516942,"lng":2.347273},{"name":"Le Bistrot du Peintre","address":"116 Avenue Ledru-Rollin","cp":"75011","city":"Paris","lat":48.8532009,"lng":2.3772443},{"name":"Acad\u00e9mie de la Bi\u00e8re","address":"88 bis, Boulevard de Port Royal","cp":"75005","city":"Paris","lat":48.8392082,"lng":2.3391601},{"name":"Le Motel","address":"8 Passage Josset","cp":"75011","city":"Paris","lat":48.8527333,"lng":2.3764142},{"name":"3 Pi\u00e8ces Cuisine","address":"25, Rue de Ch\u00e9roy","cp":"75017","city":"Paris","lat":48.8828639,"lng":2.318189},{"name":"Le Sous Bock Tavern","address":"49, Rue Saint-Honor\u00e9","cp":"75001","city":"Paris","lat":48.8607709,"lng":2.3450376},{"name":"The Frog & British Library","address":"114, Avenue de France","cp":"75013","city":"Paris","lat":48.8306519,"lng":2.3767749},{"name":"Partie de Campagne","address":"36 Cour Saint-Emilion","cp":"75012","city":"Paris","lat":48.8327432,"lng":2.3860483},{"name":"Au M\u00e9tro - 14e arrondissement","address":"66 Rue Raymond Losserand","cp":"75014","city":"Paris","lat":48.8339688,"lng":2.3181388},{"name":"Le Barracao","address":"108 Rue Oberkampf","cp":"75011","city":"Paris","lat":48.8657791,"lng":2.3789278},{"name":"Le Tourville","address":"43, Avenue de la Motte-Picquet","cp":"75007","city":"Paris","lat":48.8544478,"lng":2.3063362},{"name":"Le Petit Ba\u00efona","address":"90 Rue de Charonne","cp":"75011","city":"Paris","lat":48.8537196,"lng":2.3817839},{"name":"Le Balajo","address":"9 Rue de Lappe","cp":"75011","city":"Paris","lat":48.8541955,"lng":2.372179},{"name":"Caf\u00e9 L\u00e9a","address":"5, Rue Claude Bernard","cp":"75005","city":"Paris","lat":48.838595,"lng":2.349874},{"name":"Grazie","address":"91 Boulevard Beaumachais","cp":"75003","city":"Paris","lat":48.8593718,"lng":2.3672784},{"name":"Hall 1900","address":"64, Rue Rambuteau","cp":"75003","city":"Paris","lat":48.8619222,"lng":2.3507704},{"name":"Le Calbar","address":"82 Rue de Charenton","cp":"75012","city":"Paris","lat":48.8486848,"lng":2.3752892},{"name":"L'Adada","address":"15 Rue du Maine","cp":"75014","city":"Paris","lat":48.8405221,"lng":2.3223886},{"name":"Chez Claude","address":"166, Rue Saint-Honor\u00e9","cp":"75001","city":"Paris","lat":48.8622896,"lng":2.3395061},{"name":"Restaurant Lap\u00e9rouse","address":"51 Quai des Grands Augustins","cp":"75006","city":"Paris","lat":48.855058,"lng":2.3414372},{"name":"Le Next","address":"17 Rue Tiquetonne","cp":"75002","city":"Paris","lat":48.864591,"lng":2.3485099},{"name":"Caf\u00e9 monde et m\u00e9dias","address":"18 Place De la r\u00e9publique","cp":"75010","city":"Paris","lat":48.8680761,"lng":2.3624295},{"name":"Un Dimanche \u00e0 Paris","address":"4-6-8 Cours du Commerce Saint Andr\u00e9","cp":"75006","city":"Paris","lat":48.8523684,"lng":2.3392766},{"name":"Le Pain Quotidien - Saint-Honor\u00e9","address":"18 Place du March\u00e9 Saint-Honor\u00e9","cp":"75001","city":"Paris","lat":48.8663341,"lng":2.3316658},{"name":"Caf\u00e9 de Flore","address":"172 Boulevard Saint-Germain","cp":"75006","city":"Paris","lat":48.8541404,"lng":2.3324825},{"name":"Le Baratin","address":"3 Rue Jouye-Rouve","cp":"75020","city":"Paris","lat":48.8731293,"lng":2.3829178},{"name":"El Picaflor","address":"9, Rue Lacep\u00e8de","cp":"75005","city":"Paris","lat":48.8435695,"lng":2.3534962},{"name":"Aux Petits Joueurs","address":"59 Rue Mouza\u00efa","cp":"75019","city":"Paris","lat":48.8806376,"lng":2.3961903},{"name":"Caf\u00e9 Hugo","address":"22, Place des Vosges","cp":"75004","city":"Paris","lat":48.855922,"lng":2.3666292},{"name":"Le Centenaire","address":"104, Rue Amelot","cp":"75011","city":"Paris","lat":48.8626084,"lng":2.3676116},{"name":"Toraya","address":"10, Rue Saint-Florentin","cp":"75001","city":"Paris","lat":48.8676043,"lng":2.3246132},{"name":"Le Z\u00e8bre de Belleville","address":"61-63, Boulevard de Belleville","cp":"75011","city":"Paris","lat":48.870114,"lng":2.3787015},{"name":"Sofa Caf\u00e9 Studio","address":"4 Rue La fayette","cp":"75009","city":"Paris","lat":48.8731676,"lng":2.3336793},{"name":"L'Infinith\u00e9","address":"8 Rue Desnouettes","cp":"75015","city":"Paris","lat":48.8361067,"lng":2.2930061},{"name":"Zoco Bar","address":"22, Avenue Vellefaux","cp":"75010","city":"Paris","lat":48.8734205,"lng":2.3703518},{"name":"A la Duchesse Anne","address":"5, Place du 18 Juin 1940","cp":"75006","city":"Paris","lat":48.8439913,"lng":2.3245065},{"name":"Le Z\u00e9phyr","address":"1 Rue de Jourdain","cp":"75020","city":"Paris","lat":48.8738613,"lng":2.3895294},{"name":null,"address":null,"cp":null,"city":null,"lat":null,"lng":null},{"name":"Le Perchoir","address":"14 Rue Crespin du Gast","cp":"75011","city":"Paris","lat":48.8654569,"lng":2.3820249},{"name":"Ave Maria","address":"1, Rue Jacquard","cp":"75011","city":"Paris","lat":48.8644247,"lng":2.3732422},{"name":"Le Barramundi","address":"3 Rue Taitbout","cp":"75009","city":"Paris","lat":48.8721124,"lng":2.336202},{"name":"Au Coco de Mer","address":"34 Boulevard Saint-Marcel","cp":"75005","city":"Paris","lat":48.8392258,"lng":2.3585515},{"name":"Toi Bar & Restaurant","address":"27 Rue du Colis\u00e9e","cp":"75008","city":"Paris","lat":48.8711173,"lng":2.3090968},{"name":"Point Eph\u00e9m\u00e8re (FMR)","address":"200 Quai de Valmy","cp":"75010","city":"Paris","lat":48.881228,"lng":2.3681408},{"name":"La Cantoche Paname","address":"97 Rue Montmartre","cp":"75002","city":"Paris","lat":48.8679923,"lng":2.3434531},{"name":"Le Paradis du Fruit - Bastille","address":"12, Place de la Bastille","cp":"75011","city":"Paris","lat":48.8532865,"lng":2.3695665},{"name":"D\u00e9d\u00e9 la frite","address":"135 Rue Montmartre","cp":"75002","city":"Paris","lat":48.8697506,"lng":2.3428615},{"name":"L'Enchanteur","address":"15, Rue Michel Le Comte","cp":"75003","city":"Paris","lat":48.8621683,"lng":2.3559011},{"name":"Le Jaur\u00e8s Caf\u00e9","address":"1, Avenue Jean Jaur\u00e8s","cp":"75019","city":"Paris","lat":48.8829174,"lng":2.3704757},{"name":"Dans le Noir","address":"51 Rue Quincampoix","cp":"75004","city":"Paris","lat":48.8614164,"lng":2.350272},{"name":"O'Sullivans - Bd. Montmartre","address":"1, Boulevard Montmartre","cp":"75002","city":"Paris","lat":48.8693,"lng":2.353885},{"name":"Sherwood","address":"3 Rue Daunou","cp":"75002","city":"Paris","lat":48.8692496,"lng":2.332316},{"name":"A la Ville de P\u00e9trograd","address":"13 Rue Daru","cp":"75008","city":"Paris","lat":48.8780712,"lng":2.3017499},{"name":"Le Mini Palais","address":"1 Avenue Winston Churchill","cp":"75008","city":"Paris","lat":48.865895,"lng":2.3138045},{"name":"Spirit Bar","address":"72 Rue Gay-Lussac","cp":"75005","city":"Paris","lat":48.8417725,"lng":2.3430017},{"name":"Le Nun's Caf\u00e9","address":"112, Rue Saint Maur","cp":"75011","city":"Paris","lat":48.8667905,"lng":2.3764513},{"name":"Caf\u00e9 Valentin","address":"1, Rue Chaillot","cp":"75016","city":"Paris","lat":48.8657293,"lng":2.2956376},{"name":"Downtown Caf\u00e9","address":"46 Rue Jean-Pierre Timbaud","cp":"75011","city":"Paris","lat":48.8662472,"lng":2.3723353},{"name":"Lounge Bar View - Novotel Paris Vaugirard Montparnasse","address":"257 Rue De vaugirard","cp":"75015","city":"Paris","lat":48.8399018,"lng":2.3031011},{"name":"Prescription Cocktail Club","address":"23 Rue Mazarine","cp":"75006","city":"Paris","lat":48.8549968,"lng":2.3381224},{"name":"18. 75 Bar Lounge","address":"3 Rue Caulaincourt","cp":"75018","city":"Paris","lat":48.8852794,"lng":2.3301021},{"name":"Acte 3","address":"94 Rue Quincampoix","cp":"75003","city":"Paris","lat":48.8628356,"lng":2.3515632},{"name":"Copperbay","address":"5 Rue Bouchardon","cp":"75010","city":"Paris","lat":48.8698311,"lng":2.3571402},{"name":"R\u00eaves d'Abyssinie","address":"132 Rue Saint denis","cp":"75002","city":"Paris","lat":48.8649381,"lng":2.3504377},{"name":"Mystery Escape","address":"50 Rue de Monceau","cp":"75008","city":"Paris","lat":48.8778944,"lng":2.3114631},{"name":"L'Echiquier","address":"164, Rue St Maur","cp":"75011","city":"Paris","lat":48.8698953,"lng":2.3738372},{"name":"Sparks","address":"85 Rue De dunkerque (angle rue g\u00e9rando)","cp":"75009","city":"Paris","lat":48.8823655,"lng":2.3456704},{"name":"Asian","address":"30, Avenue George V","cp":"75008","city":"Paris","lat":48.8681977,"lng":2.3012683},{"name":"Caf\u00e9 Divan","address":"60, Rue de la Roquette","cp":"75011","city":"Paris","lat":48.8551897,"lng":2.374019},{"name":"Banana Caf\u00e9","address":"13-15, Rue de la Ferronnerie","cp":"75001","city":"Paris","lat":48.8601277,"lng":2.3475155},{"name":"Le Black Dog","address":"26, des Lombards","cp":"75004","city":"Paris","lat":48.8594245,"lng":2.3491133},{"name":"Le Suffren","address":"84, Avenue de Suffren","cp":"75015","city":"Paris","lat":48.8512864,"lng":2.3004818},{"name":"Le Caf\u00e9 Noir","address":"65, Rue Montmartre","cp":"75002","city":"Paris","lat":48.8665319,"lng":2.3442653},{"name":"Corcoran's Irish Pub","address":"28, Rue Saint-Andr\u00e9 des Arts","cp":"75006","city":"Paris","lat":48.8533641,"lng":2.3423847},{"name":"Bistrot Renaissance","address":"19, Rue Ren\u00e9 Boulanger","cp":"75010","city":"Paris","lat":48.869105,"lng":2.356095},{"name":"Au Roi du caf\u00e9","address":"59 Rue Lecourbe","cp":"75015","city":"Paris","lat":48.8435952,"lng":2.3066006},{"name":"La Forge - Caf\u00e9 Restaurant","address":"63 Boulevard de Vaugirard","cp":"75015","city":"Paris","lat":48.8403974,"lng":2.316057},{"name":"Le Cadran du Faubourg","address":"79, Rue du Faubourg St Denis","cp":"75010","city":"Paris","lat":48.8732935,"lng":2.3542849},{"name":"Ladur\u00e9e - Champs Elys\u00e9es","address":"75, Avenue des Champs Elys\u00e9es","cp":"75008","city":"Paris","lat":48.870814,"lng":2.3030644},{"name":"Restaurant Pershing & Bar Lounge du Pershing Hall","address":"49, Rue Pierre Charron","cp":"75008","city":"Paris","lat":48.869178,"lng":2.3020534},{"name":"Anahuacalli","address":"30, Rue des Bernardins","cp":"75005","city":"Paris","lat":48.8498528,"lng":2.3504069},{"name":"N'importe Quoi","address":"16 Rue Du roule","cp":"75001","city":"Paris","lat":48.8607691,"lng":2.3439188},{"name":"L'Atelier de Jo\u00ebl Robuchon","address":"5, Rue de Montalembert","cp":"75007","city":"Paris","lat":48.8566745,"lng":2.3279058},{"name":"Le Pain Quotidien - Marais","address":"18 Rue des Archives","cp":"75004","city":"Paris","lat":48.8578323,"lng":2.3547789},{"name":"No Stress Caf\u00e9","address":"24 Rue Clauzel - Place Gustave Toudouze","cp":"75009","city":"Paris","lat":48.8790183,"lng":2.3379063},{"name":"Le Bombardier","address":"2 Place Du panth\u00e9on","cp":"75005","city":"Paris","lat":48.8468327,"lng":2.3476782},{"name":"Le Fouquet's","address":"99 Avenue des Champs Elys\u00e9es","cp":"75008","city":"Paris","lat":48.8719523,"lng":2.3008841},{"name":"Dame Tartine Beaubourg","address":"2, Rue Brisemiche","cp":"75004","city":"Paris","lat":48.8592549,"lng":2.3516011},{"name":"Le Saint M'","address":"34 Cour Saint-Emilion","cp":"75012","city":"Paris","lat":48.8327432,"lng":2.3860483},{"name":"Le Sofa","address":"21 Rue Saint Sabin","cp":"75011","city":"Paris","lat":48.8558606,"lng":2.3711924},{"name":"Auto Passion Caf\u00e9","address":"197, Boulevard Brune","cp":"75014","city":"Paris","lat":48.823529,"lng":2.324732},{"name":"Fl\u00fbte L'Etoile","address":"19 Rue de l'Etoile","cp":"75017","city":"Paris","lat":48.8775796,"lng":2.2949775},{"name":"Caveau de la Huchette","address":"5, Rue de la Huchette","cp":"75005","city":"Paris","lat":48.8527109,"lng":2.3462425},{"name":"Bistrot 1929","address":"49 Rue Orfila","cp":"75020","city":"Paris","lat":48.8669451,"lng":2.3977047},{"name":"Experimental Cocktail Club","address":"37, Rue Saint Sauveur","cp":"75002","city":"Paris","lat":48.8660725,"lng":2.3482312},{"name":"Jaipur Caf\u00e9","address":"15-17 Rue des Messageries","cp":"75010","city":"Paris","lat":48.8762285,"lng":2.3494105},{"name":"Le D\u00f4me de Villiers","address":"4, Avenue de Villiers","cp":"75017","city":"Paris","lat":48.8816423,"lng":2.3157203},{"name":"Chez Vous","address":"15 Rue Choron","cp":"75009","city":"Paris","lat":48.8777075,"lng":2.3398089},{"name":"Le 2me Arrt","address":"49 Rue montmartre","cp":"75002","city":"Paris","lat":48.8656874,"lng":2.34434},{"name":"L'Epoque","address":"38, Boulevard de Clichy","cp":"75018","city":"Paris","lat":48.8828514,"lng":2.3361828},{"name":"New Morning","address":"7-9, Rue des Petites Ecuries","cp":"75010","city":"Paris","lat":48.8728992,"lng":2.3533082},{"name":"Terrasse 17","address":"17, Rue des Batignolles","cp":"75017","city":"Paris","lat":48.8839941,"lng":2.3224},{"name":"Au M\u00e9tro - 15e arrondissement","address":"18 Boulevard Pasteur","cp":"75015","city":"Paris","lat":48.8428496,"lng":2.3123768},{"name":"Bulls Brothers","address":"27 Rue de la Huchette","cp":"75005","city":"Paris","lat":48.8529763,"lng":2.3450635},{"name":"Le Mayflower","address":"49 Rue Descartes","cp":"75005","city":"Paris","lat":48.8451578,"lng":2.349307},{"name":"Twenty One Sound Bar","address":"20, Rue de la Forge Royale","cp":"75011","city":"Paris","lat":48.8515923,"lng":2.3807515},{"name":"Mojito lab paris","address":"28 Rue Keller","cp":"75011","city":"Paris","lat":48.8551357,"lng":2.3758655},{"name":"Le Sherkhan","address":"66 Rue d'Hauteville","cp":"75010","city":"Paris","lat":48.8750324,"lng":2.3511403},{"name":"O'connells Parmentier","address":"88 ter Avenue Parmentier","cp":"75011","city":"Paris","lat":48.8649499,"lng":2.3750153},{"name":"A la Goutte Rouge","address":"19 Rue Polonceau","cp":"75018","city":"Paris","lat":48.8854465,"lng":2.3531454},{"name":"Le Caf\u00e9 Lomi","address":"3ter Rue Marcadet","cp":"75018","city":"Paris","lat":48.8903174,"lng":2.3555901},{"name":"Les champs... Et les vignes","address":"11 bis Rue Du colis\u00e9e","cp":"75008","city":"Paris","lat":48.8706724,"lng":2.3076708},{"name":"Dada","address":"12, Avenue des Ternes","cp":"75017","city":"Paris","lat":48.878558,"lng":2.2956146},{"name":"Dr feelgood","address":"34 Rue Keller","cp":"75011","city":"Paris","lat":48.8553366,"lng":2.375694},{"name":"L'Absurde Imposture","address":"5 Rue Eug\u00e8ne Sue","cp":"75018","city":"Paris","lat":48.8910519,"lng":2.3460259},{"name":"Tico","address":"38 Rue Jean Mermoz","cp":"75008","city":"Paris","lat":48.8718786,"lng":2.3124321},{"name":"Le Caf\u00e9 Tournesol","address":"9 Rue De la ga\u00eet\u00e9","cp":"75014","city":"Paris","lat":48.8404365,"lng":2.3244038},{"name":"La Pirada","address":"7 Rue de Lappe","cp":"75011","city":"Paris","lat":48.8541095,"lng":2.3720664},{"name":"Lat\u00e9ral Caf\u00e9","address":"4, Avenue Mac-Mahon","cp":"75017","city":"Paris","lat":48.8752803,"lng":2.2947966},{"name":"Pink Paradise","address":"49-51 Rue de Ponthieu","cp":"75008","city":"Paris","lat":48.8714761,"lng":2.3059367},{"name":"La Chaise au Plafond","address":"10, Rue du Tr\u00e9sor","cp":"75004","city":"Paris","lat":48.8572843,"lng":2.3573772},{"name":"L'Orange M\u00e9canique","address":"72 bis Rue Jean-Pierre Timbaud","cp":"75011","city":"Paris","lat":48.8667493,"lng":2.3756491},{"name":"Dupont Caf\u00e9 - 1er","address":"25 Boulevard De s\u00e9bastopol","cp":"75001","city":"Paris","lat":48.8597701,"lng":2.3488837},{"name":"La Bucherie","address":"41 Rue B\u00fbcherie","cp":"75005","city":"Paris","lat":48.8526705,"lng":2.3470038},{"name":"Vavin Caf\u00e9","address":"18, Rue Vavin","cp":"75006","city":"Paris","lat":48.8439326,"lng":2.3303117},{"name":"Mood","address":"114 , Avenue des Champs Elys\u00e9es","cp":"75008","city":"Paris","lat":48.8723461,"lng":2.3013286},{"name":"Merle Moqueur","address":"11, Rue de la Butte aux Cailles","cp":"75013","city":"Paris","lat":48.8277461,"lng":2.3504141},{"name":"La Fl\u00e8che d'Or","address":"102 bis Rue de Bagnolet","cp":"75020","city":"Paris","lat":48.8592194,"lng":2.4028493},{"name":"Chez Prune","address":"36, Rue Beaurepaire - Quai Valmy","cp":"75010","city":"Paris","lat":48.8763061,"lng":2.3641887},{"name":"Au Dernier M\u00e9tro","address":"70, Boulevard de Grenelle","cp":"75015","city":"Paris","lat":48.8504425,"lng":2.2930506},{"name":"Berthillon","address":"31, Rue Saint-Louis en l'Ile","cp":"75004","city":"Paris","lat":48.8515909,"lng":2.3566181},{"name":"Chez C\u00e9cile - La Ferme des Mathurins","address":"17 Rue Vignon","cp":"75008","city":"Paris","lat":48.8713655,"lng":2.325905},{"name":"L'Antidote","address":"45, Rue Descartes","cp":"75005","city":"Paris","lat":48.8452562,"lng":2.3491873},{"name":"Le Murmure","address":"108, Rue de la Convention","cp":"75015","city":"Paris","lat":48.8410971,"lng":2.2874333},{"name":"Cave La Bourgogne","address":"144, Rue Mouffetard","cp":"75005","city":"Paris","lat":48.8391426,"lng":2.3496366},{"name":"L'Area","address":"10, Rue des Tournelles","cp":"75004","city":"Paris","lat":48.8542795,"lng":2.3674312},{"name":"Le Pr\u00e9 aux Clercs","address":"30 Rue Bonaparte","cp":"75006","city":"Paris","lat":48.8554263,"lng":2.3338419},{"name":"Le Carr\u00e9","address":"12 Place Saint Augustin","cp":"75008","city":"Paris","lat":48.8755126,"lng":2.3199259},{"name":"La Jacobine","address":"59, Rue Saint Andr\u00e9 des Arts","cp":"75006","city":"Paris","lat":48.8533018,"lng":2.3390445},{"name":"Chez Bruno","address":"26 Cour Saint-Emilion","cp":"75012","city":"Paris","lat":48.8327432,"lng":2.3860483},{"name":"Cru","address":"7 Rue Charlemagne","cp":"75004","city":"Paris","lat":48.8540124,"lng":2.3611286},{"name":"Les Marcheurs de Plan\u00e8te - Resto Zinc","address":"73, Rue de la Roquette","cp":"75011","city":"Paris","lat":48.8566151,"lng":2.3771154},{"name":"Bar des Ferrailleurs","address":"18 Rue de Lappe","cp":"75011","city":"Paris","lat":48.8536968,"lng":2.3721612},{"name":"Starbucks Coffee - Capucines","address":"3, Boulevard Capucines","cp":"75002","city":"Paris","lat":48.8708932,"lng":2.3337268},{"name":"Caf\u00e9 L\u00e9opard","address":"149 Boulevard Voltaire","cp":"75011","city":"Paris","lat":48.8555475,"lng":2.3844246},{"name":"Caf\u00e9 L\u00e9opard","address":"149 Boulevard Voltaire","cp":"75011","city":"Paris","lat":48.8555475,"lng":2.3844246},{"name":"Le Flore en l'Ile","address":"42, Quai d'Orl\u00e9ans","cp":"75004","city":"Paris","lat":48.8525964,"lng":2.3534825},{"name":"Zig Zag Caf\u00e9","address":"58 Boulevard Garibaldi","cp":"75015","city":"Paris","lat":48.8460735,"lng":2.3069535},{"name":"Paris-F\u00e9ni","address":"15 bis Rue Ternaux","cp":"75011","city":"Paris","lat":48.864466,"lng":2.3729582},{"name":"L'Alv\u00e9ole","address":"42 Rue Saint-Georges","cp":"75009","city":"Paris","lat":48.8769202,"lng":2.3373611},{"name":"Le Verre \u00e0 Pied","address":"118 bis, Rue Mouffetard","cp":"75005","city":"Paris","lat":48.8403032,"lng":2.3495832},{"name":"Le Bidule","address":"2 Rue Faidherbe","cp":"75011","city":"Paris","lat":48.850468,"lng":2.3845218},{"name":"Le Kremlin","address":"6 Rue Andr\u00e9 Antoine","cp":"75018","city":"Paris","lat":48.8829623,"lng":2.3375422},{"name":"Mouff't\u00f4t Mouff'tard","address":"71, Route Mouffetard","cp":"75005","city":"Paris","lat":48.8423157,"lng":2.3499636},{"name":"Le B58","address":"58 Rue Richer","cp":"75009","city":"Paris","lat":48.8741402,"lng":2.3426915},{"name":"L'Ambre Bar","address":"29 Rue Brunel","cp":"75017","city":"Paris","lat":48.8786123,"lng":2.2876053},{"name":"Bar'ock","address":"18 Rue Daval","cp":"75011","city":"Paris","lat":48.8544264,"lng":2.3708296},{"name":"Il bari","address":"4 Boulevard Garibaldi","cp":"75015","city":"Paris","lat":48.8474405,"lng":2.3023684},{"name":"Gran Caff\u00e8 Convivium","address":"28 Rue Marbeuf","cp":"75008","city":"Paris","lat":48.869074,"lng":2.304857},{"name":"La Vagalame","address":"Quai Fran\u00e7ois Mauriac","cp":"75013","city":"Paris","lat":48.8339028,"lng":2.3776154},{"name":"O'Connells Oberkampf","address":"98 Rue Oberkampf","cp":"75011","city":"Paris","lat":48.8656897,"lng":2.378116},{"name":"Le Music-Hall","address":"63 Avenue Franklin D. Roosevelt","cp":"75008","city":"Paris","lat":48.8718549,"lng":2.3096869},{"name":"Zango - Sud","address":"58 Rue Daguerre","cp":"75014","city":"Paris","lat":48.8350228,"lng":2.3270683},{"name":"L'Impr\u00e9vu Caf\u00e9","address":"7, Rue Quincampoix","cp":"75004","city":"Paris","lat":48.85943,"lng":2.3495983},{"name":"The Frog & Princess","address":"9, Rue Princesse","cp":"75006","city":"Paris","lat":48.852277,"lng":2.3346836},{"name":"La Dame de Canton","address":"Port de la Gare","cp":"75013","city":"Paris","lat":48.8348235,"lng":2.3771864},{"name":"Les Voisins","address":"27, Rue Yves Toudic","cp":"75010","city":"Paris","lat":48.8710285,"lng":2.3627901},{"name":"Les Artistes","address":"60 et 77 Rue Didot","cp":"75014","city":"Paris","lat":48.8295674,"lng":2.3179725},{"name":"Le Violon Dingue","address":"46, Rue Montagne Sainte Genevi\u00e8ve","cp":"75005","city":"Paris","lat":48.8476036,"lng":2.3484703},{"name":"Backstage Caf\u00e9","address":"31 bis, Rue de la Ga\u00eet\u00e9","cp":"75014","city":"Paris","lat":48.839501,"lng":2.3239833},{"name":"L'Autre Caf\u00e9","address":"62 Rue Jean-pierre timbaud","cp":"75011","city":"Paris","lat":48.8667014,"lng":2.3740775},{"name":"Camille","address":"24 Rue des Francs Bourgeois","cp":"75003","city":"Paris","lat":48.8578737,"lng":2.3605468},{"name":"Le Requin Chagrin","address":"10, Rue Mouffetard","cp":"75005","city":"Paris","lat":48.8445813,"lng":2.3489924},{"name":"La Villa Corse Rive Droite","address":"141 Avenue De malakoff","cp":"75016","city":"Paris","lat":48.8436257,"lng":2.2662526},{"name":"Le Shywawa","address":"7 Rue du Petit Pont","cp":"75005","city":"Paris","lat":48.852518,"lng":2.3467376},{"name":"Les Deux Magots","address":"6, Place Saint-Germain-des-Pr\u00e8s","cp":"75006","city":"Paris","lat":48.8541222,"lng":2.3334708},{"name":"La Kaskad Caf\u00e9","address":"2, Place Armand-Carrel","cp":"75019","city":"Paris","lat":48.8823876,"lng":2.3818088},{"name":"Fubar","address":"5, Rue Saint-Sulpice","cp":"75006","city":"Paris","lat":48.8514915,"lng":2.3379096},{"name":"Gentleman","address":"3, Rue Hautefeuille","cp":"75006","city":"Paris","lat":48.8525152,"lng":2.3431454},{"name":"Bagdad Caf\u00e9","address":"44, Rue de la Montagne Sainte Genevi\u00e8ve","cp":"75005","city":"Paris","lat":48.847662,"lng":2.3484919},{"name":"Le Village Caf\u00e9","address":"22, Rue de la Terrasse","cp":"75017","city":"Paris","lat":48.8826013,"lng":2.3147476},{"name":"Student bar","address":"38, Rue Mouffetard","cp":"75005","city":"Paris","lat":48.8437833,"lng":2.3492659},{"name":"Le Relais de la Huchette","address":"14 Rue De la huchette","cp":"75005","city":"Paris","lat":48.853064,"lng":2.3459857},{"name":"O'Sullivan's Rebel Bar","address":"10, Rue des Lombards","cp":"75004","city":"Paris","lat":48.8591745,"lng":2.3497642},{"name":"Les Temps Modernes","address":"91 de Charenton","cp":"75012","city":"Paris","lat":48.8483005,"lng":2.3765253},{"name":"Bob's Kitchen","address":"74 Rue Des gravilliers","cp":"75003","city":"Paris","lat":48.8645677,"lng":2.3545663},{"name":"Le Gambetta","address":"8, Place Gambetta","cp":"75020","city":"Paris","lat":48.8630288,"lng":2.3882029},{"name":"L'Ecume Saint-Honor\u00e9","address":"6, Rue du March\u00e9 Saint-Honor\u00e9","cp":"75001","city":"Paris","lat":48.865865,"lng":2.331314},{"name":"New York Caf\u00e9","address":"68, Rue Mouffetard","cp":"75005","city":"Paris","lat":48.8427596,"lng":2.3494768},{"name":"La Favela Chic","address":"18 Rue du Faubourg du Temple","cp":"75011","city":"Paris","lat":48.868199,"lng":2.366387},{"name":"Bar de la Fontaine","address":"1, Rue de Charonne","cp":"75011","city":"Paris","lat":48.85453,"lng":2.385785},{"name":"Lefty American Bistro","address":"36 Rue Vivienne","cp":"75002","city":"Paris","lat":48.8707623,"lng":2.3411753},{"name":"Bubble Fever - Bubble tea Bar","address":"5 Rue de Mirbel","cp":"75005","city":"Paris","lat":48.8407983,"lng":2.3519577},{"name":"Le Faust","address":"Port Des invalides","cp":"75007","city":"Paris","lat":48.862979,"lng":2.313405},{"name":"Floquifil","address":"17 Rue de Montyon","cp":"75009","city":"Paris","lat":48.8729788,"lng":2.3434297},{"name":"Le Six Seven","address":"65-67, Rue Pierre Charron","cp":"75008","city":"Paris","lat":48.8699999,"lng":2.3042858},{"name":"Caf\u00e9 Le Baron","address":"11 Rue de Chateaudun","cp":"75009","city":"Paris","lat":48.8757588,"lng":2.3407575},{"name":"La F\u00e9e Verte","address":"108, Rue de la Roquette","cp":"75011","city":"Paris","lat":48.8568497,"lng":2.377895},{"name":"Le Pachyderme","address":"2 Bis Boulevard Saint-Martin","cp":"75010","city":"Paris","lat":48.8681549,"lng":2.3621094},{"name":"Truskel Club","address":"12 Rue Feydeau","cp":"75002","city":"Paris","lat":48.8701321,"lng":2.3413007},{"name":"Raimo Glacier","address":"61-63 Boulevard de Reuilly","cp":"75012","city":"Paris","lat":48.8398955,"lng":2.3986852},{"name":"Les Cariatides","address":"3 Rue De palestro","cp":"75002","city":"Paris","lat":48.8645151,"lng":2.3509724},{"name":"Caf\u00e9 Canon des Gobelins","address":"25, Avenue des Gobelins","cp":"75013","city":"Paris","lat":48.836574,"lng":2.3523074},{"name":"le Campanella","address":"18 Avenue Bosquet","cp":"75007","city":"Paris","lat":48.858571,"lng":2.3033745},{"name":"Le Caf\u00e9 Marly","address":"93 Rue De rivoli","cp":"75001","city":"Paris","lat":48.8620304,"lng":2.3364212},{"name":"La Rhumerie","address":"166, Boulevard St-Germain","cp":"75006","city":"Paris","lat":48.8534786,"lng":2.3355615},{"name":"La Pachanga","address":"8 Rue Vandamme","cp":"75014","city":"Paris","lat":48.8395575,"lng":2.3229905},{"name":"Charlie Birdy - Bo\u00e9tie","address":"124 Rue de La Bo\u00e9tie","cp":"75008","city":"Paris","lat":48.8711576,"lng":2.3062205},{"name":"Bateau Concorde Atlantique","address":"27 Quai Anatole France","cp":"75007","city":"Paris","lat":48.8619425,"lng":2.3213234},{"name":"La Closerie des Lilas","address":"171, Boulevard du Montparnasse","cp":"75006","city":"Paris","lat":48.8401545,"lng":2.3359814},{"name":"Le Romeo","address":"71 Boulevard Saint Germain","cp":"75005","city":"Paris","lat":48.8505588,"lng":2.3450105},{"name":"Caf\u00e9 Rive Droite","address":"2, Rue Berger","cp":"75001","city":"Paris","lat":48.8606684,"lng":2.3486422},{"name":"Le Sainte Marthe","address":"32 Rue Sainte-Marthe","cp":"75010","city":"Paris","lat":48.8741397,"lng":2.372301},{"name":"Dupont Caf\u00e9 - 15\u00e8me","address":"198 Rue De la convention","cp":"75015","city":"Paris","lat":48.8371979,"lng":2.2959987},{"name":"Caf\u00e9 Place Verte","address":"105, Rue Oberkampf","cp":"75011","city":"Paris","lat":48.8656685,"lng":2.377321},{"name":"Le Trend","address":"37, Rue du Colis\u00e9e","cp":"75008","city":"Paris","lat":48.8716728,"lng":2.3105122},{"name":"Le Paprika","address":"28 Avenue Trudaine","cp":"75009","city":"Paris","lat":48.8810377,"lng":2.3405938},{"name":"Le Valmy","address":"145, Quai de Valmy","cp":"75010","city":"Paris","lat":48.8776041,"lng":2.3651305},{"name":"The Freedom","address":"8, Rue de Berri","cp":"75008","city":"Paris","lat":48.8723192,"lng":2.3040674},{"name":"The James Joyce Pub","address":"71, Boulevard Gouvion-Saint-Cyr","cp":"75017","city":"Paris","lat":48.8803585,"lng":2.2853017},{"name":"The James Joyce Pub","address":"71, Boulevard Gouvion-Saint-Cyr","cp":"75017","city":"Paris","lat":48.8803585,"lng":2.2853017},{"name":"The Highlander","address":"8, Rue Nevers","cp":"75006","city":"Paris","lat":48.8560916,"lng":2.3396498},{"name":"Chez Ir\u00e8ne et Bernard","address":"58 Rue Gauthey","cp":"75017","city":"Paris","lat":48.8935996,"lng":2.3221594},{"name":"Le Duc de Richelieu","address":"5, Rue Parrot","cp":"75012","city":"Paris","lat":48.8469076,"lng":2.3730823},{"name":"Caf\u00e9 les Arts et M\u00e9tiers","address":"51, Rue de Turbigo","cp":"75003","city":"Paris","lat":48.8654477,"lng":2.3552151},{"name":"Raidd Bar","address":"23, Rue du Temple","cp":"75004","city":"Paris","lat":48.8587086,"lng":2.3533441},{"name":"Caff\u00e9 Boboli","address":"13, Rue du Roi de Sicile","cp":"75004","city":"Paris","lat":48.8560412,"lng":2.358894},{"name":"L'Absinthe Caf\u00e9","address":"54, de Turbigo","cp":"75003","city":"Paris","lat":48.8657935,"lng":2.3575252},{"name":"Caf\u00e9 Cosi","address":"54, Rue de Seine","cp":"75006","city":"Paris","lat":48.8541342,"lng":2.3365809},{"name":"Les Deux Savoies","address":"23 bis, Boulevard Diderot","cp":"75012","city":"Paris","lat":48.8460825,"lng":2.3734528},{"name":"25 Degr\u00e9s Est","address":"10, Place Bataille de Stalingrad","cp":"75019","city":"Paris","lat":48.8833328,"lng":2.3693008},{"name":"Grom","address":"81 Rue de Seine","cp":"75006","city":"Paris","lat":48.8532748,"lng":2.3371114},{"name":"Au Vieux Ch\u00eane","address":"69, Rue Mouffetard","cp":"75005","city":"Paris","lat":48.8423331,"lng":2.3498132},{"name":"Les Caves Populaires","address":"22 Rue des Dames","cp":"75017","city":"Paris","lat":48.8847686,"lng":2.3246547},{"name":"Quetzal Bar","address":"8, Rue la Verrerie","cp":"75004","city":"Paris","lat":48.8570823,"lng":2.3552594},{"name":"Moutarde Street","address":"23 Boulevard des Italiens","cp":"75002","city":"Paris","lat":48.871268,"lng":2.3359718},{"name":"Ze Bar","address":"20 Rue de la Huchette","cp":"75005","city":"Paris","lat":48.8531758,"lng":2.3455699},{"name":"Chlo\u00e9.S","address":"40 Rue Jean-Baptiste Pigalle","cp":"75009","city":"Paris","lat":48.8798936,"lng":2.3346701},{"name":"Le Solf\u00e9rino","address":"262, Boulevard Saint Germain","cp":"75007","city":"Paris","lat":48.8594083,"lng":2.322665},{"name":"Le Relais des Arts","address":"100, Rue Monge","cp":"75005","city":"Paris","lat":48.8403276,"lng":2.3513751},{"name":"L'Or en Bar","address":"30 Rue de Lappe","cp":"75011","city":"Paris","lat":48.8530747,"lng":2.3738697},{"name":"Le Caf\u00e9 des Chats","address":"16 Rue Michel le comte","cp":"75003","city":"Paris","lat":48.8623204,"lng":2.3561589},{"name":"Caf\u00e9 Fran\u00e7ais","address":"3 Place de la Bastille","cp":"75004","city":"Paris","lat":48.8531365,"lng":2.3679415},{"name":"Le Bar au M\u00e8tre","address":"38 bis Boulevard Voltaire","cp":"75011","city":"Paris","lat":48.8637532,"lng":2.3694176},{"name":"Ten Belles","address":"10 Rue de la Grange aux Belles","cp":"75010","city":"Paris","lat":48.8735594,"lng":2.3647712},{"name":"Square Saint Honor\u00e9","address":"40 Place Du march\u00e9 saint honor\u00e9","cp":"75001","city":"Paris","lat":48.8674155,"lng":2.3324251},{"name":"L'Eclair","address":"32 Rue Cler","cp":"75007","city":"Paris","lat":48.8570142,"lng":2.3059184},{"name":"Le Cardinal","address":"1, Boulevard des Italiens","cp":"75002","city":"Paris","lat":48.8717591,"lng":2.3396203},{"name":"O'Jules","address":"2, Rue Bobillot","cp":"75013","city":"Paris","lat":48.8305165,"lng":2.3545431},{"name":"Le Paradis du Fruit - Saint Michel","address":"2 Place de la Fontaine Saint-Michel","cp":"75006","city":"Paris","lat":48.8532316,"lng":2.3439023},{"name":"Guinness Rock Tavern","address":"31bis Rue des Lombards","cp":"75001","city":"Paris","lat":48.859499,"lng":2.3487335},{"name":"Comptoir de l'Arc","address":"73 Avenue Marceau","cp":"75016","city":"Paris","lat":48.8709914,"lng":2.2969954},{"name":"L'Entrep\u00f4t","address":"7-9 Rue Francis-de-Pressens\u00e9","cp":"75014","city":"Paris","lat":48.8338653,"lng":2.3165955},{"name":"L'Urgence Bar","address":"45, Rue Monsieur Le Prince","cp":"75006","city":"Paris","lat":48.849568,"lng":2.3402885},{"name":"Caf\u00e9 Oz Ch\u00e2telet","address":"18 Rue St-Denis","cp":"75001","city":"Paris","lat":48.8593477,"lng":2.3479494},{"name":"The Financier","address":"15, Rue du D\u00e9part","cp":"75014","city":"Paris","lat":48.842526,"lng":2.3237937},{"name":"The Long Hop","address":"27, Rue Fr\u00e9d\u00e9ric Sauton","cp":"75005","city":"Paris","lat":48.8504627,"lng":2.3490452},{"name":"Le Bar du March\u00e9","address":"75, Rue de Seine","cp":"75006","city":"Paris","lat":48.8539711,"lng":2.3370571},{"name":"Charlie Birdy - Boulevard du Montparnasse","address":"84, Boulevard du Montparnasse","cp":"75014","city":"Paris","lat":48.8427853,"lng":2.3263357},{"name":"Le Falstaff - Bastille","address":"10, Place de la Bastille","cp":"75011","city":"Paris","lat":48.8538045,"lng":2.3703464},{"name":"Le Sancerre - 18e arrondissement","address":"35 Rue des Abbesses","cp":"75018","city":"Paris","lat":48.8848753,"lng":2.3368896},{"name":"Tribeca","address":"36, Rue Cler","cp":"75007","city":"Paris","lat":48.8567502,"lng":2.3060042},{"name":"Bugsy's","address":"15 Rue Montalivet","cp":"75008","city":"Paris","lat":48.8711309,"lng":2.3178648},{"name":"Caf\u00e9 Panis","address":"21, Quai Montebello","cp":"75005","city":"Paris","lat":48.8521417,"lng":2.3483344},{"name":"La Gueuze","address":"19, Rue Soufflot","cp":"75005","city":"Paris","lat":48.8469842,"lng":2.341389},{"name":"Le caf\u00e9 des Deux Moulins","address":"15 Rue Lepic","cp":"75018","city":"Paris","lat":48.884533,"lng":2.334104},{"name":"Le Paradis du Fruit - George V","address":"47, Avenue George V","cp":"75008","city":"Paris","lat":48.870742,"lng":2.300702},{"name":"L'Entrepot's","address":"2, Rue Sorbier","cp":"75020","city":"Paris","lat":48.8686411,"lng":2.389549},{"name":"L'Escargot","address":"50 Rue de la Villette","cp":"75019","city":"Paris","lat":48.8770102,"lng":2.388017},{"name":"Paris Madeira","address":"28 , Rue de Caumartin","cp":"75009","city":"Paris","lat":48.8721206,"lng":2.3284364},{"name":"Baiser Sal\u00e9","address":"58, Rue des Lombards","cp":"75001","city":"Paris","lat":48.8600234,"lng":2.3479314},{"name":"Teddy's Bar","address":"3, Rue Thouin","cp":"75005","city":"Paris","lat":48.8450062,"lng":2.349309},{"name":"Bar Le Passage","address":"9 Place de la Madeleine","cp":"75008","city":"Paris","lat":48.8696078,"lng":2.322961},{"name":"Le Petit March\u00e9","address":"9, Rue B\u00e9arn","cp":"75003","city":"Paris","lat":48.8573415,"lng":2.3660817},{"name":"Le Limonaire","address":"21 Cit\u00e9 Berg\u00e8re","cp":"75009","city":"Paris","lat":48.8724358,"lng":2.3449181},{"name":"Piston P\u00e9lican","address":"15 Rue de Bagnolet","cp":"75020","city":"Paris","lat":48.8569441,"lng":2.3957157},{"name":"La Taverne de Cluny","address":"52, Rue de la Harpe","cp":"75005","city":"Paris","lat":48.8512966,"lng":2.3435795},{"name":"L'Impr\u00e9vu Caf\u00e9 - Rue de Tocqueville","address":"2, Rue de Tocqueville","cp":"75017","city":"Paris","lat":48.8818795,"lng":2.3149208},{"name":"Tea Corner","address":"6 Rue Mandar","cp":"75002","city":"Paris","lat":48.8656731,"lng":2.3463501},{"name":"Mariage Fr\u00e8res - Rive Gauche","address":"13, Rue des Grands Augustins","cp":"75006","city":"Paris","lat":48.8543416,"lng":2.3406729},{"name":"Old Navy","address":"150, Boulevard Saint-Germain","cp":"75006","city":"Paris","lat":48.8532038,"lng":2.3367136},{"name":"La Bague de Kenza","address":"106, Rue Saint Maur","cp":"75011","city":"Paris","lat":48.8663768,"lng":2.3769315},{"name":"La MaiZon Bar","address":"123 Rue Oberkampf","cp":"75011","city":"Paris","lat":48.8661874,"lng":2.3790752},{"name":"Le Komptoir","address":"27, Rue Quincampoix","cp":"75004","city":"Paris","lat":48.8601753,"lng":2.3500149},{"name":"Le Quai","address":"Quai Anatole France - Port de Solf\u00e9rino","cp":"75007","city":"Paris","lat":48.858285,"lng":2.323271},{"name":"Caf\u00e9 Barjot","address":"18 Avenue Ledru Rollin","cp":"75012","city":"Paris","lat":48.8464317,"lng":2.369063},{"name":"Le Lut\u00e9tia","address":"49, Rue de Linois","cp":"75015","city":"Paris","lat":48.8470035,"lng":2.2852689},{"name":"Les Alchimistes","address":"16 Rue Favart","cp":"75002","city":"Paris","lat":48.8712318,"lng":2.3383504},{"name":"Bar Romain","address":"6 Rue de Caumartin","cp":"75009","city":"Paris","lat":48.8706588,"lng":2.328246},{"name":"Spirit Cafe","address":"11, Rue Rameau","cp":"75002","city":"Paris","lat":48.867867,"lng":2.3367762},{"name":"N\u00e9o Caf\u00e9","address":"126 Boulevard Saint-germain","cp":"75006","city":"Paris","lat":48.8524879,"lng":2.3396812},{"name":"Clichy's Tavern","address":"128Bis, Boulevard de Clichy","cp":"75018","city":"Paris","lat":48.884607,"lng":2.3293261},{"name":"Le P'tit Garage","address":"63, Rue Jean-Pierre Timbaud","cp":"75011","city":"Paris","lat":48.8671685,"lng":2.3752266},{"name":"A la Renaissance","address":"87, Rue de la Roquette","cp":"75011","city":"Paris","lat":48.8573693,"lng":2.3785021},{"name":"Restaurant de l'H\u00f4tel de Sers","address":"41, Avenue Pierre 1er de Serbie","cp":"75008","city":"Paris","lat":48.8682095,"lng":2.3005436},{"name":"L'Arobase","address":"101, Rue Chevaleret","cp":"75013","city":"Paris","lat":48.8304621,"lng":2.3744972},{"name":"Metropolitan","address":"83 Boulevard de Grenelle","cp":"75015","city":"Paris","lat":48.8502535,"lng":2.2951387},{"name":"Le Boui Boui","address":"11, Rue Marie Stuart","cp":"75002","city":"Paris","lat":48.8649097,"lng":2.3475975},{"name":"Club des Po\u00e8tes","address":"30 Rue de Bourgogne","cp":"75007","city":"Paris","lat":48.8581268,"lng":2.3175273},{"name":"Les Zazous","address":"46 Boulevard du Montparnasse","cp":"75015","city":"Paris","lat":48.8446263,"lng":2.3208323},{"name":"La popote du 18","address":"184 Rue Marcadet","cp":"75018","city":"Paris","lat":48.8916585,"lng":2.3364519},{"name":"Studio 28","address":"10, Rue Tholoz\u00e9","cp":"75018","city":"Paris","lat":48.8860552,"lng":2.3355131},{"name":"The Fifth bar","address":"62, Rue Mouffetard","cp":"75005","city":"Paris","lat":48.8430131,"lng":2.3493978},{"name":"K1ze","address":"15 Rue Gaillon","cp":"75002","city":"Paris","lat":48.8688811,"lng":2.3343793},{"name":"B.B.O.","address":"19, Rue Fran\u00e7ois Miron","cp":"75004","city":"Paris","lat":48.8557171,"lng":2.3571605},{"name":"Brasserie La Maison Blanche","address":"21, Rue de Dunkerque","cp":"75010","city":"Paris","lat":48.8796561,"lng":2.3555636},{"name":"Caf\u00e9 Lacombe","address":"55, Rue des Acacias","cp":"75017","city":"Paris","lat":48.8783087,"lng":2.2938538},{"name":"Le Comptoir des Chineurs","address":"8 Rue Durantin","cp":"75018","city":"Paris","lat":48.8854906,"lng":2.3373666},{"name":"Three Ducks","address":"6, Place Etienne Pernet","cp":"75015","city":"Paris","lat":48.8434964,"lng":2.2924429},{"name":"Le Valentin","address":"30 Passage Jouffroy","cp":"75009","city":"Paris","lat":48.8722687,"lng":2.342107},{"name":"Makassar Lounge & Restaurant","address":"39 Avenue de Wagram","cp":"75017","city":"Paris","lat":48.8766028,"lng":2.297024},{"name":"Secret Square","address":"27 Avenue des Ternes","cp":"75017","city":"Paris","lat":48.8781761,"lng":2.2948613},{"name":"Le 2 Bis Caf\u00e9","address":"2, Rue des Ecoles","cp":"75005","city":"Paris","lat":48.8474895,"lng":2.3527037},{"name":"Nul Bar Ailleurs","address":"18 Rue de Cotte","cp":"75012","city":"Paris","lat":48.8498928,"lng":2.3781688},{"name":"Caf\u00e9 de la Butte","address":"71, Rue Caulaincourt","cp":"75018","city":"Paris","lat":48.889783,"lng":2.3365225},{"name":"Caf\u00e9 Le Triomphe","address":"6 Place De la nation","cp":"75012","city":"Paris","lat":48.8474829,"lng":2.3948378},{"name":"Le Daudet","address":"16 Rue Alphonse Daudet","cp":"75014","city":"Paris","lat":48.8268498,"lng":2.3270752},{"name":"L'Ethnika","address":"127 Rue Saint Maur","cp":"75011","city":"Paris","lat":48.8668705,"lng":2.3759729},{"name":"Le 114","address":"114 Rue Oberkampf","cp":"75011","city":"Paris","lat":48.8659225,"lng":2.3791596},{"name":"La P\u00e2tisserie des R\u00eaves - 16\u00e8me","address":"111 Rue de Longchamp","cp":"75016","city":"Paris","lat":48.8665724,"lng":2.279293},{"name":"Aux Tables du P\u00e8re Lachaise","address":"44 Boulevard de M\u00e9nilmontant","cp":"75020","city":"Paris","lat":48.8631962,"lng":2.3875442},{"name":"Bob's Juice Bar","address":"15, Rue Lucien-Sampaix","cp":"75010","city":"Paris","lat":48.872029,"lng":2.3604325},{"name":"Rush Bar","address":"32, Rue Saint S\u00e9bastien","cp":"75011","city":"Paris","lat":48.8612942,"lng":2.370205},{"name":"Les Reines du Bouchon","address":"23 Rue De la victoire","cp":"75009","city":"Paris","lat":48.8750539,"lng":2.3388066},{"name":"Caf\u00e9 Chineur","address":"170, Rue Al\u00e9sia","cp":"75014","city":"Paris","lat":48.831989,"lng":2.314049},{"name":"Hollywood Savoy","address":"44 Rue Notre Dame des Victoires","cp":"75002","city":"Paris","lat":48.8691417,"lng":2.342403},{"name":"H\u00f4tel Westminster","address":"13 Rue de la Paix","cp":"75002","city":"Paris","lat":48.86937,"lng":2.3309734},{"name":"Le Mastroquet","address":"10 Place du Colonel Bourgoin","cp":"75012","city":"Paris","lat":48.844592,"lng":2.3834824},{"name":"Les Sciences","address":"21 Rue Jussieu","cp":"75005","city":"Paris","lat":48.8464774,"lng":2.3541771},{"name":"Le Bar Fleuri","address":"1, Rue du Plateau","cp":"75019","city":"Paris","lat":48.8779013,"lng":2.3854232},{"name":"Le Bar","address":"27, Rue de Cond\u00e9","cp":"75006","city":"Paris","lat":48.8497245,"lng":2.3380621},{"name":"Le Bio Sph\u00e8re Caf\u00e9","address":"47 Rue de Laborde","cp":"75008","city":"Paris","lat":48.8753834,"lng":2.3177909},{"name":"Caf\u00e9 R\u00e9galia","address":"1 Rue de la Convention","cp":"75015","city":"Paris","lat":48.8459658,"lng":2.2776848},{"name":"Caf\u00e9 le Moderne","address":"10 Rue Saint Antoine","cp":"75004","city":"Paris","lat":48.8538405,"lng":2.3669112},{"name":"Chez Julien","address":"2 Rue Lepic","cp":"75018","city":"Paris","lat":48.8840332,"lng":2.3330812},{"name":"Le Comptoir","address":"365 bis Rue de Vaugirard","cp":"75015","city":"Paris","lat":48.8366139,"lng":2.2952185},{"name":"Eug\u00e8ne","address":"166, Boulevard Haussmann","cp":"75008","city":"Paris","lat":48.8753852,"lng":2.3093356},{"name":"Le Quartier G\u00e9n\u00e9ral","address":"9 Rue Sorbier","cp":"75020","city":"Paris","lat":48.8681226,"lng":2.390405},{"name":"La Roseraie","address":"47, Rue de Tolbiac","cp":"75013","city":"Paris","lat":48.827547,"lng":2.3711843},{"name":"Le Pr\u00e9au","address":"3 Rue de Birague","cp":"75004","city":"Paris","lat":48.8542757,"lng":2.3648333},{"name":"Le Stube Richelieu","address":"31 Rue de Richelieu","cp":"75001","city":"Paris","lat":48.8652431,"lng":2.3363918},{"name":"Le Soleil","address":"25 Rue Chanzy","cp":"75011","city":"Paris","lat":48.8528583,"lng":2.3852733},{"name":"Tralali Tralala","address":"80 Rue du Mont-Cenis","cp":"75018","city":"Paris","lat":48.8938928,"lng":2.3453034},{"name":"Le 56","address":"56 Rue De la fontaine au roi","cp":"75011","city":"Paris","lat":48.8678544,"lng":2.3735535},{"name":"Bonnie and Clyde","address":"12 Rue Frochot","cp":"75009","city":"Paris","lat":48.881714,"lng":2.337277},{"name":"Au f\u00fbt et \u00e0 mesure","address":"2 Rue D'hauteville","cp":"75010","city":"Paris","lat":48.8703489,"lng":2.3496074},{"name":"La Chambre aux Oiseaux","address":"48 Rue Bichat","cp":"75010","city":"Paris","lat":48.8738335,"lng":2.3644403},{"name":"Dernier Bar avant la Fin du Monde","address":"19 Avenue Victoria","cp":"75001","city":"Paris","lat":48.8578201,"lng":2.3462717},{"name":"Le Badaboum","address":"2 bis Rue Taillandiers","cp":"75011","city":"Paris","lat":48.8533132,"lng":2.3757792},{"name":"Play Bar","address":"32 Rue Albert Thomas","cp":"75010","city":"Paris","lat":48.8696961,"lng":2.3630486},{"name":"Bar \u00e0 Mines","address":"64 Rue Charenton","cp":"75012","city":"Paris","lat":48.8493275,"lng":2.3742669},{"name":"Ouest-Bar","address":"64, Boulevard d'Ornano","cp":"75018","city":"Paris","lat":48.8960295,"lng":2.3460605},{"name":"Le Bar du Bristol","address":"112 Rue du Faubourg Saint Honor\u00e9","cp":"75008","city":"Paris","lat":48.8718282,"lng":2.314999},{"name":"Le Barclkays Caf\u00e9","address":"48 Avenue de Saint-Ouen","cp":"75018","city":"Paris","lat":48.8904066,"lng":2.3268364},{"name":"Le Boulanger des Invalides - Maison Jocteur","address":"14 Avenue de Villars","cp":"75007","city":"Paris","lat":48.8518486,"lng":2.3134748},{"name":"Brasserie Le Nesle","address":"22 Rue Dauphine","cp":"75006","city":"Paris","lat":48.8551813,"lng":2.3394198},{"name":"L'\u00e9chapp\u00e9e Bulle","address":"20 Rue des Dames","cp":"75017","city":"Paris","lat":48.8850075,"lng":2.3247515},{"name":"Le Sherry Butt","address":"20 Rue Beautreillis","cp":"75004","city":"Paris","lat":48.8532466,"lng":2.3641478},{"name":"Paris-Cy Internet Caf\u00e9","address":"8, Rue de Jouy","cp":"75004","city":"Paris","lat":48.8548836,"lng":2.3583607},{"name":"Damas Caf\u00e9","address":"37 Rue du Colis\u00e9e","cp":"75008","city":"Paris","lat":48.8716728,"lng":2.3105122},{"name":"Le Caf\u00e9 Gourmand","address":"192 Avenue de France","cp":"75013","city":"Paris","lat":48.8359121,"lng":2.3719833},{"name":"Le Patio - La Cantinetta","address":"5 Rue Meyerbeer","cp":"75009","city":"Paris","lat":48.8716266,"lng":2.3332443},{"name":"Thirsty Mad Cat","address":"120 Rue Montmartre","cp":"75002","city":"Paris","lat":48.8678079,"lng":2.3439836},{"name":"Le Mary Celeste","address":"1 Rue des Commines","cp":"75002","city":"Paris","lat":48.8617169,"lng":2.3650486},{"name":"La Petite Chaufferie","address":"32 Rue de l'Echiquier","cp":"75010","city":"Paris","lat":48.8715585,"lng":2.3505422},{"name":"Ex-nihilo & Cie","address":"29 Rue Oberkampf","cp":"75011","city":"Paris","lat":48.8637656,"lng":2.370103},{"name":"Le Coq","address":"12 Rue du Ch\u00e2teau d'eau","cp":"75010","city":"Paris","lat":48.8698628,"lng":2.3611553},{"name":"Coq o rico","address":"115 Rue Saint-Maur","cp":"75011","city":"Paris","lat":48.8660728,"lng":2.3766186},{"name":"La Coquille","address":"30, Rue Coquilli\u00e8re","cp":"75001","city":"Paris","lat":48.8642695,"lng":2.3417231},{"name":"Les Gourmands Notre Dame","address":"1 Rue Grands Degr\u00e9s","cp":"75005","city":"Paris","lat":48.8512267,"lng":2.3502331},{"name":"La Galerie des Gobelins","address":"25 Avenue Montaigne","cp":"75008","city":"Paris","lat":48.866098,"lng":2.304361},{"name":"Little Red Door","address":"60 Rue Charlot","cp":"75003","city":"Paris","lat":48.8635525,"lng":2.3636987},{"name":"Elitissime","address":"32 Rue Monsieur le Prince","cp":"75006","city":"Paris","lat":48.8492566,"lng":2.340089},{"name":"Yogurt factory","address":"3 Rue Saint Merri","cp":"75004","city":"Paris","lat":48.8590129,"lng":2.3535493},{"name":"Fragments","address":"76 Rue des Tournelles","cp":"75003","city":"Paris","lat":48.857981,"lng":2.367503},{"name":"In out","address":"241 Rue Du faubourg saint antoine","cp":"75011","city":"Paris","lat":48.8501518,"lng":2.3851349},{"name":"Soul Kitchen","address":"33 Rue Lamarck","cp":"75018","city":"Paris","lat":48.8891424,"lng":2.3422785},{"name":"L'Endroit","address":"67 Place du Dr F\u00e9lix Lobligeois","cp":"75017","city":"Paris","lat":48.886541,"lng":2.3185499},{"name":"La Tarte Trop\u00e9zienne","address":"3 Rue Montfaucon","cp":"75006","city":"Paris","lat":48.8528068,"lng":2.3359353},{"name":"Le Soleil","address":"134, Avenue de Clichy","cp":"75017","city":"Paris","lat":48.8907482,"lng":2.3202473},{"name":"Le Lucernaire - Restaurant","address":"53 Rue Notre-dame des champs","cp":"75006","city":"Paris","lat":48.8443303,"lng":2.3305208},{"name":"Le More","address":"18 Boulevard du Temple","cp":"75011","city":"Paris","lat":48.8645774,"lng":2.3661127},{"name":"Le Sansev\u00e9ria","address":"248, Rue de Rivoli","cp":"75001","city":"Paris","lat":48.8663545,"lng":2.3249115},{"name":"Lily of the Valley","address":"12 Rue Dupetit Thouars","cp":"75003","city":"Paris","lat":48.8655236,"lng":2.3620797},{"name":"LockWood","address":"73 Rue d'Aboukir","cp":"75002","city":"Paris","lat":48.867941,"lng":2.3467911},{"name":"Lone Palm","address":"21 Rue Keller","cp":"75011","city":"Paris","lat":48.8549467,"lng":2.3754321},{"name":"Merci","address":"111 Boulevard Beaumarchais","cp":"75003","city":"Paris","lat":48.8607452,"lng":2.3668044},{"name":"L'Et\u00e9 en Pente Douce","address":"23 Rue Muller","cp":"75018","city":"Paris","lat":48.8863079,"lng":2.3452102},{"name":"La Fourmi","address":"74, Rue des Martyrs","cp":"75018","city":"Paris","lat":48.882548,"lng":2.339804},{"name":"Mori Venice Bar","address":"27 Rue Vivienne","cp":"75002","city":"Paris","lat":48.8691485,"lng":2.3398349},{"name":"Andy Wahloo","address":"69, Rue des Gravilliers","cp":"75003","city":"Paris","lat":48.8644672,"lng":2.3542617},{"name":"The Frog & Rosbif","address":"116, Rue Saint-Denis","cp":"75002","city":"Paris","lat":48.8643665,"lng":2.3500946},{"name":"Caf\u00e9 Ruc","address":"159, Rue Saint-Honor\u00e9","cp":"75001","city":"Paris","lat":48.8633469,"lng":2.335428},{"name":"Promenade Lounge","address":"44 Rue du louvre","cp":"75001","city":"Paris","lat":48.8640753,"lng":2.3425763},{"name":"Zen Zoo","address":"13 Rue Chabanais","cp":"75002","city":"Paris","lat":48.8677875,"lng":2.3368203},{"name":"La Mercerie - Quincaillerie","address":"98 Rue Oberkampf","cp":"75011","city":"Paris","lat":48.8656897,"lng":2.378116},{"name":"Drouant","address":"16-18 Place Gaillon","cp":"75002","city":"Paris","lat":48.8687752,"lng":2.3343914},{"name":"Caf\u00e9 Maure de la Mosqu\u00e9e de Paris","address":"39, Rue Geoffroy Saint-Hilaire","cp":"75005","city":"Paris","lat":48.8416031,"lng":2.3558019},{"name":"Au Rocher de Cancale","address":"78, Rue Montorgueil","cp":"75002","city":"Paris","lat":48.8655795,"lng":2.3471713},{"name":"Cristal Room Baccarat","address":"11, Place des Etats-Unis","cp":"75016","city":"Paris","lat":48.8677831,"lng":2.2938379},{"name":"Le Bar Sans Nom","address":"49 Rue de Lappe","cp":"75011","city":"Paris","lat":48.8530936,"lng":2.3741405},{"name":"Caf\u00e9 de la Musique","address":"213, Avenue Jean Jaur\u00e8s","cp":"75019","city":"Paris","lat":48.889241,"lng":2.3931473},{"name":"Chez Francis Labutte","address":"122, Rue Caulaincourt","cp":"75018","city":"Paris","lat":48.8896263,"lng":2.3425825},{"name":"Brasserie Printemps","address":"60, Boulevard Haussmann","cp":"75009","city":"Paris","lat":48.8735459,"lng":2.328777},{"name":"Dock","address":"25 Rue Louis Le Grand","cp":"75002","city":"Paris","lat":48.870422,"lng":2.333972},{"name":"L\u00e9zard Caf\u00e9","address":"32 Rue Etienne Marcel","cp":"75002","city":"Paris","lat":48.8646012,"lng":2.3464315},{"name":"Le Caf\u00e9 Daguerre","address":"4, Avenue du G\u00e9n\u00e9ral Leclerc","cp":"75014","city":"Paris","lat":48.8332754,"lng":2.3314748},{"name":"Les Fous de l'Ile","address":"33, Rue des Deux Ponts","cp":"75004","city":"Paris","lat":48.8522528,"lng":2.3566016},{"name":"Le Salsa Caf\u00e9","address":"4, Avenue Jean aicard","cp":"75011","city":"Paris","lat":48.8647068,"lng":2.3815406},{"name":"Le S\u00e9raphin","address":"5, Rue Mabillon","cp":"75006","city":"Paris","lat":48.8515798,"lng":2.3354195},{"name":"Carette - Place Trocad\u00e9ro","address":"4 Place du Trocad\u00e9ro","cp":"75016","city":"Paris","lat":48.8634449,"lng":2.2875054},{"name":"La Petite Porte","address":"20, Boulevard Saint Martin","cp":"75010","city":"Paris","lat":48.8690875,"lng":2.3564149},{"name":"Le Tabarin","address":"3 Rue du Pasteur Wagner","cp":"75011","city":"Paris","lat":48.8559971,"lng":2.3690051},{"name":"Tropic Caf\u00e9","address":"66, Rue des Lombards","cp":"75001","city":"Paris","lat":48.8599908,"lng":2.3474037},{"name":"Le Franc-Tireur","address":"34 Rue d'Armaill\u00e9","cp":"75017","city":"Paris","lat":48.8789294,"lng":2.2910438},{"name":"La Palette","address":"43, Rue de Seine","cp":"75006","city":"Paris","lat":48.8553388,"lng":2.3368821},{"name":"Marty","address":"20, Avenue des Gobelins","cp":"75005","city":"Paris","lat":48.8372743,"lng":2.3510442},{"name":"Le Clos Bourguignon","address":"39, Rue Caumartin","cp":"75009","city":"Paris","lat":48.8724682,"lng":2.3278374},{"name":"Caf\u00e9 Chic","address":"126, Rue du Faubourg- Saint-Honor\u00e9","cp":"75008","city":"Paris","lat":48.8723287,"lng":2.3129686},{"name":"Pop In","address":"105, Rue Amelot","cp":"75011","city":"Paris","lat":48.8613959,"lng":2.3674772},{"name":"L'Etoile Manquante","address":"34, Rue Vieille du Temple","cp":"75004","city":"Paris","lat":48.8575181,"lng":2.3577901},{"name":"Pakito","address":"11, Rue Rougemont","cp":"75009","city":"Paris","lat":48.8719357,"lng":2.3456875},{"name":"Au Chat Noir","address":"76, Rue Jean-Pierre Timbaud","cp":"75011","city":"Paris","lat":48.8673385,"lng":2.376126},{"name":"Tribal Caf\u00e9","address":"3, Cours des Petites-Ecuries","cp":"75010","city":"Paris","lat":48.8724424,"lng":2.3534773},{"name":"Smoke","address":"29, Rue Delambre","cp":"75014","city":"Paris","lat":48.8412399,"lng":2.3266695},{"name":"Tortilla 10","address":"10, Rue de Lappe","cp":"75011","city":"Paris","lat":48.8539646,"lng":2.3719244},{"name":"Z\u00e9ro Z\u00e9ro Bar","address":"89 Rue Amelot","cp":"75011","city":"Paris","lat":48.8605615,"lng":2.3678668},{"name":"The Great Canadian Pub","address":"25, Quai Grands Augustins","cp":"75006","city":"Paris","lat":48.8541689,"lng":2.3428114},{"name":"La Casa del Fox","address":"41 Rue du Colis\u00e9e","cp":"75008","city":"Paris","lat":48.8720193,"lng":2.3111289},{"name":"Patati Patata","address":"51, Rue de Lappe","cp":"75011","city":"Paris","lat":48.8530005,"lng":2.3743342},{"name":"Bam (Bar \u00e0 Manger)","address":"13 Rue des Lavandi\u00e8res-Sainte-Opportune","cp":"75001","city":"Paris","lat":48.8586325,"lng":2.3460092},{"name":"L'Ecluse Carnot","address":"1 Rue d'Armaill\u00e9","cp":"75017","city":"Paris","lat":48.8771046,"lng":2.2921608},{"name":"The Bottle Shop","address":"5, Rue Trousseau","cp":"75011","city":"Paris","lat":48.8511991,"lng":2.3783958},{"name":"Caf\u00e9 de l'Alma","address":"5, Avenue Rapp","cp":"75007","city":"Paris","lat":48.8609972,"lng":2.3014007},{"name":"Hideout Ch\u00e2telet","address":"46 Rue des Lombards","cp":"75001","city":"Paris","lat":48.8597974,"lng":2.348424},{"name":"Miel et Paprika","address":"24 Rue de Cotte","cp":"75012","city":"Paris","lat":48.8501529,"lng":2.3783426},{"name":"L'Armagnac","address":"104, Rue de Charonne","cp":"75011","city":"Paris","lat":48.854443,"lng":2.3849041},{"name":"La P\u00e2tisserie Viennoise","address":"8, Rue de l'Ecole de M\u00e9decine","cp":"75006","city":"Paris","lat":48.8508118,"lng":2.3415197},{"name":"Unity Bar","address":"176 \/ 178, Rue Saint-Martin","cp":"75003","city":"Paris","lat":48.8626439,"lng":2.3521887},{"name":"La Bourse ou La Vie","address":"12, Rue Vivienne","cp":"75002","city":"Paris","lat":48.8676177,"lng":2.3393482},{"name":"Caf\u00e9 Titon","address":"34 Rue Titon","cp":"75011","city":"Paris","lat":48.8528479,"lng":2.3863345},{"name":"Le Coeur Fou","address":"55 Rue Montmartre","cp":"75002","city":"Paris","lat":48.8658523,"lng":2.3441448},{"name":"Le Taxi Jaune","address":"13, Rue Chapon","cp":"75003","city":"Paris","lat":48.8632135,"lng":2.3566598},{"name":"L'Attirail","address":"9 Rue au Maire","cp":"75003","city":"Paris","lat":48.8644951,"lng":2.3569637},{"name":"Polly Maggoo","address":"3-5, Rue du Petit Pont","cp":"75005","city":"Paris","lat":48.8525874,"lng":2.3466817},{"name":"Brasserie des Deux Palais","address":"3, Boulevard du Palais","cp":"75004","city":"Paris","lat":48.8551061,"lng":2.3459549},{"name":"Palais du Grand Moghol","address":"9, Rue G\u00e9rando","cp":"75009","city":"Paris","lat":48.8825443,"lng":2.3456872},{"name":"Play Off Saint Georges","address":"35 Rue Saint Georges","cp":"75009","city":"Paris","lat":48.8769094,"lng":2.3370548},{"name":"Kamukera","address":"113 Rue Du chevaleret","cp":"75013","city":"Paris","lat":48.8312537,"lng":2.3735987},{"name":"Caf\u00e9 Antoine","address":"17 Rue de La Fontaine","cp":"75016","city":"Paris","lat":48.8516235,"lng":2.27385},{"name":"Le Bouillon Belge","address":"6 Rue Planchat","cp":"75020","city":"Paris","lat":48.8519314,"lng":2.3993522},{"name":"Havane Caf\u00e9","address":"70bis, Avenue Auguste Blanqui","cp":"75013","city":"Paris","lat":48.8303059,"lng":2.3476892},{"name":"Flag Caf\u00e9","address":"5, Boulevard Beaumarchais","cp":"75004","city":"Paris","lat":48.8541992,"lng":2.3686104},{"name":"Candelaria","address":"52 Rue de Saintonge","cp":"75003","city":"Paris","lat":48.8629395,"lng":2.3640889},{"name":"Le Pavillon du lac","address":"Parc des Buttes Chaumont","cp":"75019","city":"Paris","lat":48.8809496,"lng":2.3827609},{"name":"Le Gambetta","address":"104 Rue de Bagnolet","cp":"75020","city":"Paris","lat":48.8594913,"lng":2.4030945},{"name":"Le Refuge","address":"72 Rue Lamarck","cp":"75018","city":"Paris","lat":48.8900305,"lng":2.3389288},{"name":"Oscar","address":"6 Rue de Chaillot","cp":"75016","city":"Paris","lat":48.8528147,"lng":2.2752032},{"name":"Amorino","address":"119-121, Rue Saint Martin","cp":"75004","city":"Paris","lat":48.8607793,"lng":2.3508942},{"name":"La Terrasse des Archives","address":"51, Rue des Archives","cp":"75003","city":"Paris","lat":48.8611221,"lng":2.3580166},{"name":"Atlantide Sauna Hammam","address":"13 Rue Parrot","cp":"75012","city":"Paris","lat":48.8472281,"lng":2.374308},{"name":"L'Ecluse Grands-Augustins","address":"15 Quai des Grands Augustins","cp":"75006","city":"Paris","lat":48.8539464,"lng":2.3434704},{"name":"Caf\u00e9 Branly","address":"27 Quai Branly","cp":"75007","city":"Paris","lat":48.861529,"lng":2.2975998},{"name":"Troll Caf\u00e9","address":"27 Rue Cotte","cp":"75012","city":"Paris","lat":48.8500534,"lng":2.3779879},{"name":"Le Relais Charbon","address":"38, Rue des Entrepreneurs","cp":"75015","city":"Paris","lat":48.8463316,"lng":2.2858243},{"name":"Christian Constant","address":"37 Rue d'Assas","cp":"75006","city":"Paris","lat":48.8471973,"lng":2.330354},{"name":"Starbucks Coffee France - Les Halles","address":"1, Rue Pierre Lescot","cp":"75001","city":"Paris","lat":48.8613025,"lng":2.3478494},{"name":"Connolly's Corner","address":"12, Rue Mirbel","cp":"75005","city":"Paris","lat":48.8410393,"lng":2.3508516},{"name":"L'Escalier - Rue du Faubourg Saint Denis","address":"105, Rue du Faubourg Saint Denis","cp":"75010","city":"Paris","lat":48.8750996,"lng":2.3554728},{"name":"L'Entracte des Gobelins","address":"75, Avenue des Gobelins","cp":"75013","city":"Paris","lat":48.8333344,"lng":2.3546372},{"name":"Hurling pub","address":"8, Rue Descartes","cp":"75005","city":"Paris","lat":48.8470461,"lng":2.3484891},{"name":"L'Escale","address":"15, Rue Monsieur le Prince","cp":"75006","city":"Paris","lat":48.8512631,"lng":2.3394076},{"name":"Le Pixel","address":"10 Rue Dauphine","cp":"75006","city":"Paris","lat":48.8558485,"lng":2.3399189},{"name":"Objectif Lune","address":"19, Rue de la Roquette","cp":"75011","city":"Paris","lat":48.8546322,"lng":2.3718246},{"name":"Que Pasa","address":"3, Rue de Lappe","cp":"75011","city":"Paris","lat":48.8542212,"lng":2.3716586},{"name":"Edward and Son","address":"10, Boulevard de Clichy","cp":"75018","city":"Paris","lat":48.8823115,"lng":2.3387026},{"name":"Le Babel Caf\u00e9","address":"109, Boulevard de M\u00e9nilmontant","cp":"75011","city":"Paris","lat":48.8651524,"lng":2.3845961},{"name":"Fouquet's Barri\u00e8re","address":"46 Avenue Georges V","cp":"75008","city":"Paris","lat":48.8709911,"lng":2.3014141},{"name":"Le Petit Ch\u00e2telet","address":"9, Rue Saint-Denis","cp":"75001","city":"Paris","lat":48.859244,"lng":2.34753},{"name":"Le Coche","address":"124, Rue de Tolbiac","cp":"75013","city":"Paris","lat":48.8261814,"lng":2.3600493},{"name":"De L'Autre C\u00f4t\u00e9","address":"7 Rue L\u00e9on Jouhaux","cp":"75010","city":"Paris","lat":48.8690729,"lng":2.3639918},{"name":"Le R\u00e9tro R\u00e9publique Dancing","address":"23, Rue du faubourg du temple","cp":"75010","city":"Paris","lat":48.8688038,"lng":2.3661826},{"name":"Le Paradis du Fruit - Tournelles","address":"1 Rue des Tournelles","cp":"75004","city":"Paris","lat":48.8538779,"lng":2.3673453},{"name":"La Kolok","address":"20 Rue Du croissant","cp":"75002","city":"Paris","lat":48.8690901,"lng":2.3435213},{"name":"L'Alibi","address":"11, Rue Lapeyr\u00e8re","cp":"75018","city":"Paris","lat":48.89207,"lng":2.3430158},{"name":"Le Zorba","address":"137, Rue du Faubourg du Temple","cp":"75010","city":"Paris","lat":48.8721156,"lng":2.3762972},{"name":"Au Clair de Lune - Rue Ramey","address":"1 Rue Ramey","cp":"75018","city":"Paris","lat":48.887014,"lng":2.3474767},{"name":"Aux Cent Kilos","address":"71, Rue de Brancion","cp":"75015","city":"Paris","lat":48.8319901,"lng":2.3030915},{"name":"Le Benjamin","address":"53, Rue de Rivoli","cp":"75001","city":"Paris","lat":48.8589154,"lng":2.3464845},{"name":"Le Bonaparte","address":"42 Rue Bonaparte","cp":"75006","city":"Paris","lat":48.8546384,"lng":2.333478},{"name":"Sugarplum Cake shop","address":"68 Rue Cardinal Lemoine","cp":"75005","city":"Paris","lat":48.845363,"lng":2.3497521},{"name":"La Champmesl\u00e9","address":"4, Rue Chabanais","cp":"75002","city":"Paris","lat":48.8671462,"lng":2.3368401},{"name":"L'Avant Comptoir","address":"3 Carrefour de l'Od\u00e9on","cp":"75006","city":"Paris","lat":48.8520358,"lng":2.3388124},{"name":"Jolie M\u00f4me","address":"25 Rue Clavel","cp":"75019","city":"Paris","lat":48.8758049,"lng":2.3835555},{"name":"La Quincaillerie","address":"46 Rue du Faubourg Saint-Denis","cp":"75010","city":"Paris","lat":48.8715648,"lng":2.3536371},{"name":"Le Panier Volant","address":"37, Rue La Bruy\u00e8re","cp":"75009","city":"Paris","lat":48.8795123,"lng":2.3333376},{"name":"A la place Saint Georges","address":"60 Rue Saint Georges","cp":"75009","city":"Paris","lat":48.8781134,"lng":2.3376084},{"name":"The Art Room","address":"13 Rue Tiquetonne","cp":"75002","city":"Paris","lat":48.8645586,"lng":2.3488987},{"name":"Bar de Jarente - BDJ","address":"5, Rue de Jarente","cp":"75004","city":"Paris","lat":48.8556085,"lng":2.3631052},{"name":"Couleur Caf\u00e9","address":"60, Rue de S\u00e8vres","cp":"75007","city":"Paris","lat":48.8482232,"lng":2.3197027},{"name":"Chez Madame Gen","address":"16, Rue des Petites-Ecuries","cp":"75010","city":"Paris","lat":48.8735442,"lng":2.352516},{"name":"Le Petit Ch\u00e2teau d'Eau","address":"34, Rue du Ch\u00e2teau d'Eau","cp":"75010","city":"Paris","lat":48.870777,"lng":2.3594132},{"name":"Le Cyrano","address":"3, Rue Biot","cp":"75017","city":"Paris","lat":48.8836964,"lng":2.3267057},{"name":"Le S Restaurant","address":"34 Rue des Plantes","cp":"75014","city":"Paris","lat":48.8300612,"lng":2.322936},{"name":"Le Mansart","address":"1 Rue Mansart","cp":"75009","city":"Paris","lat":48.8821524,"lng":2.333649},{"name":"Vieux L\u00e9on","address":"18, Rue Grande Truanderie","cp":"75001","city":"Paris","lat":48.8629133,"lng":2.3488842},{"name":"Udo","address":"4 bis Rue Neuve Popincourt","cp":"75011","city":"Paris","lat":48.8644981,"lng":2.373976},{"name":"Chez L\u00e9on - 8e arrondissement","address":"5 Rue d'isly","cp":"75008","city":"Paris","lat":43.6105247,"lng":1.4760935},{"name":"Ambassade de Bourgogne","address":"6 Rue de l'Od\u00e9on","cp":"75006","city":"Paris","lat":48.851319,"lng":2.3383761},{"name":"Le Beaucour","address":"16 Avenue Hoche","cp":"75008","city":"Paris","lat":48.8768799,"lng":2.3014874},{"name":"Le Rendez-vous des Belges","address":"23 Rue de Dunkerque","cp":"75010","city":"Paris","lat":48.8798336,"lng":2.3547029},{"name":"La Cagnotte de Belleville","address":"13, Rue Jean-Baptiste Dumay","cp":"75020","city":"Paris","lat":48.8745473,"lng":2.3877615},{"name":"Le Bistro de Longchamp","address":"40, Rue de Longchamp","cp":"75016","city":"Paris","lat":48.8651042,"lng":2.2892186},{"name":"Bollynan","address":"12 Rue des Petits Carreaux","cp":"75002","city":"Paris","lat":48.8666932,"lng":2.34751},{"name":"La Bouteille sur la Table","address":"2 Passage Geffroy didelot","cp":"75017","city":"Paris","lat":48.8816968,"lng":2.3177646},{"name":"Scoop Caf\u00e9","address":"117 Rue Des dames","cp":"75017","city":"Paris","lat":48.8824893,"lng":2.3172067},{"name":"Caf\u00e9 de la poste","address":"76 Rue Damr\u00e9mont","cp":"75018","city":"Paris","lat":48.8915024,"lng":2.334996},{"name":"Caf\u00e9 Victor Hugo","address":"4, Place Victor Hugo","cp":"75016","city":"Paris","lat":48.8694399,"lng":2.2844854},{"name":"Chajin","address":"24, Rue Pasquier","cp":"75008","city":"Paris","lat":48.8727971,"lng":2.323658},{"name":"Le Charolais","address":"15, Rue Cotte","cp":"75012","city":"Paris","lat":48.8493061,"lng":2.3773166},{"name":"Starbucks Coffee - rue Monge","address":"118, Rue Monge","cp":"75005","city":"Paris","lat":48.8390265,"lng":2.3505919},{"name":"C\u00f4t\u00e9 soleil","address":"8, Avenue Trudaine","cp":"75009","city":"Paris","lat":48.8819412,"lng":2.3455091},{"name":"L'El\u00e9phant du Nil","address":"125, Rue Saint-Antoine","cp":"75004","city":"Paris","lat":48.8550685,"lng":2.360144},{"name":"Le Jean Nicot","address":"173 Rue Saint Honor\u00e9","cp":"75001","city":"Paris","lat":48.8638279,"lng":2.3336121},{"name":"L'Affiche","address":"49, Rue la Marois","cp":"75016","city":"Paris","lat":48.837686,"lng":2.2592662},{"name":"L'Impact","address":"18, Rue Greneta","cp":"75002","city":"Paris","lat":48.8652938,"lng":2.3511343},{"name":"La p'tite Louise","address":"54 Rue du Ch\u00e2teau d'eau","cp":"75010","city":"Paris","lat":48.8717665,"lng":2.3572105},{"name":"La Vue","address":"3 Place Du g\u00e9n\u00e9ral koenig","cp":"75017","city":"Paris","lat":48.8802782,"lng":2.2843852},{"name":"Nezard","address":"3, Rue Notre-Dame-des-Champs","cp":"75006","city":"Paris","lat":48.846902,"lng":2.3272691},{"name":"Samaya Paris","address":"21 Boulevard Grenelle","cp":"75015","city":"Paris","lat":48.8535559,"lng":2.2901366},{"name":"Zumo","address":"30, Avenue d'Italie","cp":"75013","city":"Paris","lat":48.8294935,"lng":2.3562293},{"name":"L'Horloge - 11e arrondissement","address":"71 Rue Servant","cp":"75011","city":"Paris","lat":48.863692,"lng":2.381061},{"name":"3234","address":"32-34 Rue de Charonne","cp":"75011","city":"Paris","lat":48.8532209,"lng":2.3761381},{"name":"Le 37 m2","address":"68 Rue Rodier","cp":"75009","city":"Paris","lat":48.8809046,"lng":2.3443318},{"name":"Les Caves Alli\u00e9es","address":"44 Rue Gr\u00e9goire de Tours","cp":"75006","city":"Paris","lat":48.8519266,"lng":2.3374009},{"name":"En attendant Rosa","address":"Port des Invalides","cp":"75007","city":"Paris","lat":48.862979,"lng":2.313405},{"name":"Babao (Bubble Tea)","address":"8 Rue Augereau","cp":"75007","city":"Paris","lat":48.8575347,"lng":2.3015922},{"name":"Le Lloyd's Bar","address":"23, Rue Treilhard","cp":"75008","city":"Paris","lat":48.8767163,"lng":2.3131153},{"name":"Face bar","address":"82 Rue Des archives","cp":"75003","city":"Paris","lat":48.8629628,"lng":2.3605064},{"name":"Hideout Bastille","address":"25 Rue De lappe","cp":"75011","city":"Paris","lat":48.8536803,"lng":2.3729434},{"name":"Bistrot des Batignolles","address":"12 Rue des Batignolles","cp":"75017","city":"Paris","lat":48.883871,"lng":2.3228076},{"name":"Beirut Caf\u00e9","address":"12 Rue de la Ferronerie","cp":"75001","city":"Paris","lat":48.8604042,"lng":2.3468432},{"name":"La Belle Juliette","address":"92 Rue du Cherche Midi","cp":"75006","city":"Paris","lat":48.8474781,"lng":2.3225738},{"name":"Le Blanc Cassis","address":"6 Rue Dupetit-thouars","cp":"75003","city":"Paris","lat":48.8650238,"lng":2.3625311},{"name":"La Bodega de la soif","address":"11, Rue Guisarde","cp":"75006","city":"Paris","lat":48.8517528,"lng":2.3345167},{"name":"Bullier","address":"22 Avenue de l'Observatoire","cp":"75014","city":"Paris","lat":48.8394216,"lng":2.3363947},{"name":"Caf\u00e9 de l'Epoque","address":"2, Rue du Bouloi","cp":"75001","city":"Paris","lat":48.8630623,"lng":2.3398343},{"name":"Caf\u00e9 mama kin","address":"13 Rue De thionville","cp":"75019","city":"Paris","lat":48.8893676,"lng":2.3836813},{"name":"Station caf\u00e9","address":"27 Boulevard Diderot","cp":"75012","city":"Paris","lat":48.8462563,"lng":2.3750925},{"name":"Le Caf\u00e9 qui parle","address":"24 Rue Caulaincourt","cp":"75018","city":"Paris","lat":48.8874376,"lng":2.3335944},{"name":"L'Arbre \u00e0 Cannelle","address":"14, Rue Linn\u00e9","cp":"75005","city":"Paris","lat":48.8447424,"lng":2.3547729},{"name":"La Maison de Th\u00e9 George Cannon","address":"12 Rue Notre-Dame-des-Champs","cp":"75006","city":"Paris","lat":48.8463519,"lng":2.3269715},{"name":"Les Caract\u00e8res","address":"25 Rue des Grands-Augustins","cp":"75006","city":"Paris","lat":48.8537568,"lng":2.3405294},{"name":"Cartel Ocho - Mezcaleria","address":"223 Rue Saint-Martin","cp":"75003","city":"Paris","lat":48.864364,"lng":2.35252},{"name":"Chez Oscar","address":"11-13 Boulevard Beaumarchais","cp":"75004","city":"Paris","lat":48.8548,"lng":2.3687186},{"name":"Papagallo - Chez les filles","address":"25 Rue des Cinq Diamants","cp":"75013","city":"Paris","lat":48.8286869,"lng":2.3507567},{"name":"La Chope des Compagnons","address":"86, Quai de l'H\u00f4tel de Ville","cp":"75004","city":"Paris","lat":48.8549755,"lng":2.3538845},{"name":"Rock'n'roll Circus","address":"5 Rue Andr\u00e9-Antoine","cp":"75018","city":"Paris","lat":48.8829352,"lng":2.3372825},{"name":"Ma Pomme en Colima\u00e7on","address":"107 Rue de M\u00e9nilmontant","cp":"75020","city":"Paris","lat":48.8693678,"lng":2.3919659},{"name":"Miss Cupcake","address":"22 Rue de la Vieuville","cp":"75018","city":"Paris","lat":48.8847235,"lng":2.340466},{"name":"Le Fleurus","address":"10 Boulevard Jourdan","cp":"75014","city":"Paris","lat":48.819677,"lng":2.3428099},{"name":"La Fronde","address":"33 Rue des Archives","cp":"75004","city":"Paris","lat":48.8593793,"lng":2.3561228},{"name":"Garden Perk","address":"21 Rue Cujas","cp":"75005","city":"Paris","lat":48.8479042,"lng":2.3419615},{"name":"Novotel Paris Gare Montparnasse","address":"17 Rue Cotentin","cp":"75015","city":"Paris","lat":48.8384552,"lng":2.315204},{"name":"O'Connells Saint Honor\u00e9","address":"71 Rue Saint Honor\u00e9","cp":"75001","city":"Paris","lat":48.8611211,"lng":2.3443527},{"name":"Wanna Juice - Montorgueil","address":"9, Rue Montorgueil","cp":"75001","city":"Paris","lat":48.8635565,"lng":2.3461702},{"name":"L'Ariel","address":"18, Rue des Martyrs","cp":"75009","city":"Paris","lat":48.8777956,"lng":2.339533},{"name":"Le Parisien","address":"337 Rue Saint martin","cp":"75003","city":"Paris","lat":48.8680512,"lng":2.354692},{"name":"Le Purgatoire","address":"13 Boulevard de M\u00e9nilmontant","cp":"75011","city":"Paris","lat":48.8592646,"lng":2.389008},{"name":"Le Terminus Nation","address":"1 Cours de Vincennes","cp":"75020","city":"Paris","lat":48.8475551,"lng":2.4109166},{"name":"Le Smile","address":"24 Rue Pasquier","cp":"75008","city":"Paris","lat":48.8727971,"lng":2.323658},{"name":"Le Look","address":"17 Rue Martel","cp":"75010","city":"Paris","lat":48.8743815,"lng":2.3527763},{"name":"Les Pipelettes","address":"31 Rue Brezin","cp":"75014","city":"Paris","lat":48.8314084,"lng":2.3261248},{"name":"Peco Peco","address":"47 Rue Rue Jean-Baptiste Pigalle","cp":"75009","city":"Paris","lat":48.8800753,"lng":2.3345217},{"name":"Times Square","address":"73 Rue Jean-baptiste pigalle","cp":"75009","city":"Paris","lat":48.8818148,"lng":2.3366342},{"name":"The Thistle","address":"112 Rue Saint-Denis","cp":"75002","city":"Paris","lat":48.8639482,"lng":2.3500852},{"name":"Titty Twister","address":"5 Rue de Berri","cp":"75008","city":"Paris","lat":48.8719038,"lng":2.3031578},{"name":"T\u00eate \u00e0 T\u00eate","address":"47 Boulevard Henri IV","cp":"75004","city":"Paris","lat":48.8529766,"lng":2.3677689},{"name":"Caf\u00e9 Beaubourg","address":"100 Rue Saint-martin","cp":"75004","city":"Paris","lat":48.8599879,"lng":2.3509596},{"name":"Chez  Marianne","address":"2, Rue des Hospitali\u00e8res-Saint-Gervais","cp":"75004","city":"Paris","lat":48.8576941,"lng":2.3584085},{"name":"Ladur\u00e9e - Madeleine","address":"16, Rue Royale","cp":"75008","city":"Paris","lat":48.8684378,"lng":2.3236443},{"name":"L'An vert du d\u00e9cor","address":"32 Rue de la Roquette","cp":"75011","city":"Paris","lat":48.8541528,"lng":2.371507},{"name":"Bel Canto","address":"72, Quai de l'H\u00f4tel de ville","cp":"75004","city":"Paris","lat":48.8547411,"lng":2.3543742},{"name":"The Studio","address":"41, Rue du Temple","cp":"75004","city":"Paris","lat":48.8597071,"lng":2.3534792},{"name":"Le Grand Caf\u00e9 des Capucines","address":"4, Boulevard des Capucines","cp":"75009","city":"Paris","lat":48.8710975,"lng":2.3335586},{"name":"Nove Sette","address":"97 Rue des Dames","cp":"75017","city":"Paris","lat":48.8829856,"lng":2.3185166},{"name":"Caf\u00e9 Jade","address":"10, Rue de Buci","cp":"75006","city":"Paris","lat":48.8540325,"lng":2.3375333},{"name":"1728","address":"8 , Rue d'Anjou","cp":"75008","city":"Paris","lat":48.869849,"lng":2.3208872},{"name":"Pure Caf\u00e9","address":"14, Rue Jean-Mac\u00e9","cp":"75011","city":"Paris","lat":48.853282,"lng":2.3834659},{"name":"O'Neil","address":"20, Rue des Canettes","cp":"75006","city":"Paris","lat":48.8518389,"lng":2.3336686},{"name":"Starbucks Coffee - Op\u00e9ra","address":"26, Avenue de l'Op\u00e9ra","cp":"75001","city":"Paris","lat":48.8672852,"lng":2.334052},{"name":"Dev\u00e8z","address":"5 Place de l'Alma","cp":"75008","city":"Paris","lat":48.8650921,"lng":2.3010517},{"name":"O Resto","address":"55, Boulevard Gouvion Saint Cyr","cp":"75017","city":"Paris","lat":48.881591,"lng":2.2861445},{"name":"Caf\u00e9 de l'Esplanade","address":"52, Rue Fabert","cp":"75007","city":"Paris","lat":48.858478,"lng":2.3112029},{"name":"La Caravane","address":"35 Rue Fontaine au Roi","cp":"75011","city":"Paris","lat":48.8684115,"lng":2.3712766},{"name":"Le G\u00e9n\u00e9ral Beuret","address":"9, Place du G\u00e9n\u00e9ral-Beuret","cp":"75015","city":"Paris","lat":48.8416955,"lng":2.3028844},{"name":"La Perle","address":"78, Rue Vieille du Temple","cp":"75003","city":"Paris","lat":48.8597511,"lng":2.3605948},{"name":"Bar Brasserie le Bastille","address":"8, Place de la Bastille","cp":"75011","city":"Paris","lat":48.8537918,"lng":2.3705269},{"name":"Caf\u00e9 Zimmer","address":"1, Place du Ch\u00e2telet","cp":"75001","city":"Paris","lat":48.8576177,"lng":2.3469751},{"name":"Le Caveau des Oubliettes","address":"52 Rue Galande","cp":"75005","city":"Paris","lat":48.8519987,"lng":2.3467478},{"name":"Chez Ginette","address":"101 Rue Caulaincourt","cp":"75018","city":"Paris","lat":48.8897895,"lng":2.3387442},{"name":"Indiana Caf\u00e9 Denfert-Rochereau","address":"1, Avenue du G\u00e9n\u00e9ral Leclerc","cp":"75014","city":"Paris","lat":48.8334431,"lng":2.3320277},{"name":"Georges Caf\u00e9","address":"4 Rue de la Huchette","cp":"75005","city":"Paris","lat":48.8528601,"lng":2.3463228},{"name":"Caf\u00e9 de la Plage","address":"59, Rue de Charonne","cp":"75011","city":"Paris","lat":48.8536359,"lng":2.3791897},{"name":"L'Auberge Caf\u00e9","address":"4 Rue Bertin Poir\u00e9e","cp":"75001","city":"Paris","lat":48.8582088,"lng":2.3446411},{"name":"Ice B\u00e4ar - Haagen Dazs - Champs Elys\u00e9es","address":"49-51 Avenue Champs Elys\u00e9es","cp":"75008","city":"Paris","lat":48.8703727,"lng":2.3055885},{"name":"Chez Pierrot","address":"33, Rue de Lappe","cp":"75011","city":"Paris","lat":48.8534905,"lng":2.3732582},{"name":"Au Petit Poucet","address":"5, Place de Clichy","cp":"75017","city":"Paris","lat":48.8835728,"lng":2.3270353},{"name":"Caf\u00e9 Oz Blanche","address":"1 Rue de Bruxelles","cp":"75009","city":"Paris","lat":48.8837263,"lng":2.3322572},{"name":"Dandy's","address":"9, Rue Nicolas Flamel","cp":"75004","city":"Paris","lat":48.8591563,"lng":2.3497198},{"name":"Dogstar","address":"122 Rue La bo\u00e9tie","cp":"75008","city":"Paris","lat":48.8712961,"lng":2.3064077},{"name":"Le 50","address":"50 Rue de Lancry","cp":"75010","city":"Paris","lat":48.8718713,"lng":2.3627842},{"name":"Caf\u00e9 Klein Holland","address":"36, Rue du roi de Sicile","cp":"75004","city":"Paris","lat":48.8564452,"lng":2.358004},{"name":"Aux trois Mailletz","address":"56 Rue Galande","cp":"75005","city":"Paris","lat":48.8522808,"lng":2.346665},{"name":"L'Eau Peine Bar","address":"26, Rue Lappe","cp":"75011","city":"Paris","lat":48.8533763,"lng":2.3733237},{"name":"Le Molotov","address":"4 Rue du port Mahon","cp":"75002","city":"Paris","lat":48.869135,"lng":2.3342057},{"name":"The Auld Alliance","address":"80 Rue Fran\u00e7ois Miron","cp":"75004","city":"Paris","lat":48.8553539,"lng":2.3591543},{"name":"Cr\u00eaperie Cat'Man","address":"12, Rue Temple","cp":"75004","city":"Paris","lat":48.8580813,"lng":2.3532401},{"name":"Celtic Corner","address":"88, Rue De La Croix Nivert","cp":"75015","city":"Paris","lat":48.8439138,"lng":2.2956737},{"name":"Starbucks Coffee France - Od\u00e9on","address":"91, Boulevard St Germain","cp":"75006","city":"Paris","lat":48.851957,"lng":2.3394377},{"name":"L'Etoile de Montmartre","address":"26 Rue Duhesme","cp":"75018","city":"Paris","lat":48.8910372,"lng":2.3393194},{"name":"Au Fond du Bar","address":"15 Rue Simart","cp":"75018","city":"Paris","lat":48.8905614,"lng":2.3481767},{"name":"Le Berimbar","address":"131 Rue Oberkampf","cp":"75011","city":"Paris","lat":48.8664253,"lng":2.3800803},{"name":"Bar de l'h\u00f4tel Intercontinental Le Grand","address":"2 Rue Scribe","cp":"75009","city":"Paris","lat":48.8707808,"lng":2.3303003},{"name":"Le Baratin Caf\u00e9","address":"41 Boulevard Saint-marcel","cp":"75013","city":"Paris","lat":48.838476,"lng":2.3570482},{"name":"Le Cadran Voltaire","address":"109, Boulevard Voltaire","cp":"75011","city":"Paris","lat":48.8576951,"lng":2.3804957},{"name":"Le Caf\u00e9 des Sports","address":"94 Rue De m\u00e9nilmontant","cp":"75020","city":"Paris","lat":48.8691075,"lng":2.392118},{"name":"Les Nuits des th\u00e9s","address":"22, Rue Beaune","cp":"75007","city":"Paris","lat":48.857722,"lng":2.3289536},{"name":"L'Est Parisien","address":"1, Avenue de Verdun","cp":"75010","city":"Paris","lat":48.8760902,"lng":2.3608316},{"name":"La P\u00e9taudi\u00e8re","address":"7, Rue Norvins","cp":"75018","city":"Paris","lat":48.886936,"lng":2.3400784},{"name":"Panic Room","address":"101 Rue Amelot","cp":"75011","city":"Paris","lat":48.8612144,"lng":2.3676228},{"name":"Au Rapide","address":"6, Place Bienvenue","cp":"75015","city":"Paris","lat":48.8422472,"lng":2.3201346},{"name":"Casa del Campo - Bercy Village","address":"55-57 Cour Saint-Emilion","cp":"75012","city":"Paris","lat":48.8334681,"lng":2.3870156},{"name":"Boca Loca","address":"189, Rue Saint-Maur","cp":"75010","city":"Paris","lat":48.8713853,"lng":2.37199},{"name":"Le Chat Perch\u00e9","address":"13 Rue Castex","cp":"75004","city":"Paris","lat":48.8530865,"lng":2.3662794},{"name":"O Philos Off","address":"86, Boulevard Diderot","cp":"75012","city":"Paris","lat":48.8469923,"lng":2.383768},{"name":"Pub O'Malley","address":"6 bis Rue du Quatre Septembre","cp":"75002","city":"Paris","lat":48.8691866,"lng":2.3390654},{"name":"Rose Bakery Bon March\u00e9","address":"24 Rue de S\u00e8vres","cp":"75007","city":"Paris","lat":48.8506068,"lng":2.3246016},{"name":"Boulangerie P\u00e2tisserie Verdier","address":"219, Avenue de Versailles","cp":"75016","city":"Paris","lat":48.8378095,"lng":2.2579697},{"name":"Frog XVI","address":"110 bis Avenue Kl\u00e9ber","cp":"75016","city":"Paris","lat":48.8648597,"lng":2.2882164},{"name":"L'Appart","address":"164, Rue Faubourg Saint Antoine","cp":"75012","city":"Paris","lat":48.8502286,"lng":2.3814486},{"name":"Le Tiki Lounge","address":"26 bis Rue de la Fontaine au roi","cp":"75011","city":"Paris","lat":48.8681288,"lng":2.3712079},{"name":"Zen Zoo Thesaurus","address":"2, Rue Chabanais","cp":"75002","city":"Paris","lat":48.8670591,"lng":2.3367485},{"name":"Le 72M","address":"72 Boulevard Malesherbes","cp":"75008","city":"Paris","lat":48.8783966,"lng":2.3155649},{"name":"Aux d\u00e9lices d'Agathe","address":"42, Rue Broca","cp":"75005","city":"Paris","lat":48.837853,"lng":2.3472785},{"name":"Starbucks - Avenue de France","address":"107, Avenue de France","cp":"75013","city":"Paris","lat":48.8299461,"lng":2.376931},{"name":"Tangerine Bar","address":"2 Place de la D\u00e9fense","cp":"92053","city":"Paris","lat":48.8928308,"lng":2.2391601},{"name":"L'Oiseau Blanc - Bar du Peninsula","address":"Avenue Kleber","cp":"75016","city":"Paris","lat":48.8683498,"lng":2.2908922},{"name":"La Veilleuse de Belleville","address":"26 Rue des Envierges","cp":"75020","city":"Paris","lat":48.8722351,"lng":2.3875551},{"name":"Caf\u00e9 le Paris","address":"24, Boulevard Richard Lenoir","cp":"75011","city":"Paris","lat":48.8560941,"lng":2.3708905},{"name":"Caf\u00e9 Marais","address":"10 Rue des Haudriettes","cp":"75003","city":"Paris","lat":48.8618207,"lng":2.357337},{"name":"Caf\u00e9 'In","address":"10 Avenue Victoria","cp":"75004","city":"Paris","lat":48.8573346,"lng":2.3492748},{"name":"Caf\u00e9 Felixio","address":"75 Place F\u00e9lix Lobligeois","cp":"75017","city":"Paris","lat":48.88684,"lng":2.3173146},{"name":"La Conserverie","address":"37 bis Rue du Sentier","cp":"75002","city":"Paris","lat":48.8700983,"lng":2.3458962},{"name":"Demory","address":"62 Rue Quincampoix","cp":"75004","city":"Paris","lat":48.8615748,"lng":2.3507896},