[
    {
        "name": "SELAS PHARMACIE CENTRALE D ALESIA",
        "lat": 48.82965636,
        "lng": 2.32163597,
        "telephone": "0145421324",
        "adresse_complete": "137 RUE D ALESIA, 75014 PARIS 14"
    },
    {
        "name": "SARL PHARMACIE DES PLANTES",
        "lat": 48.8275941,
        "lng": 2.32099,
        "telephone": "0145430338",
        "adresse_complete": "24 RUE DES PLANTES, 75014 PARIS 14"
    },
    {
        "name": "SNC GRANDE PHARMACIE DIDOT",
        "lat": 48.8258475,
        "lng": 2.3128639,
        "telephone": "0145395756",
        "adresse_complete": "64 BOULEVARD BRUNE, 75014 PARIS 14"
    },
    {
        "name": "PHARMACIE BERNARD ZERBIB",
        "lat": 48.8234265,
        "lng": 2.323761,
        "telephone": "0145397372",
        "adresse_complete": "128 BOULEVARD BRUNE, 75014 PARIS 14"
    },
    {
        "name": "EURL PLANCHE",
        "lat": 48.8347648,
        "lng": 2.3327271,
        "telephone": "0143542971",
        "adresse_complete": "97 AVENUE DENFERT ROCHEREAU, 75014 PARIS 14"
    },
    {
        "name": "M OMAR AADRI",
        "lat": 48.8277549,
        "lng": 2.3289438,
        "telephone": "0145407284",
        "adresse_complete": "11 RUE MARGUERIN, 75014 PARIS 14"
    },
    {
        "name": "SELAS PHARMACIE  MONTPARNASSE",
        "lat": 48.84334075,
        "lng": 2.32426401,
        "telephone": "0143207022",
        "adresse_complete": "1 RUE D ODESSA, 75014 PARIS 14"
    },
    {
        "name": "SELARL PHARMACIE R. C.",
        "lat": 48.8247715,
        "lng": 2.3256445,
        "telephone": "0145397403",
        "adresse_complete": "122 AVENUE DU GENERAL LECLERC, 75014 PARIS 14"
    },
    {
        "name": "SELAS PHARMAWIN",
        "lat": 48.8314253,
        "lng": 2.3133237,
        "telephone": "0145426250",
        "adresse_complete": "89 RUE RAYMOND LOSSERAND, 75014 PARIS 14"
    },
    {
        "name": "SELARL PHARMACIE DE LA PAIX",
        "lat": 48.8314253,
        "lng": 2.3133237,
        "telephone": "0145436522",
        "adresse_complete": "156 RUE RAYMOND LOSSERAND, 75014 PARIS 14"
    },
    {
        "name": "SELAS PHARMACIE SARRETTE SELAS",
        "lat": 48.8255732,
        "lng": 2.3277215,
        "telephone": "0143271757",
        "adresse_complete": "3 RUE SARRETTE, 75014 PARIS 14"
    },
    {
        "name": "GRANDE PHARMACIE DE L ARRIVEE",
        "lat": 48.84367615,
        "lng": 2.322312,
        "telephone": "0145486120",
        "adresse_complete": "6 RUE DE L ARRIV\u00c9E, 75015 PARIS 15"
    },
    {
        "name": "PHARMACIE DE BRETEUIL",
        "lat": 48.84718835,
        "lng": 2.31090605,
        "telephone": "0147341485",
        "adresse_complete": "6 PL DE BRETEUIL, 75015 PARIS 15"
    },
    {
        "name": "PHARM DE L HELIPORT",
        "lat": 48.82857803,
        "lng": 2.27358876,
        "telephone": "0145583745",
        "adresse_complete": "36 RUE COLONEL PIERRE AVIA, 75015 PARIS 15"
    },
    {
        "name": "GRANDE PHARMACIE DU COMMERCE",
        "lat": 48.8442222,
        "lng": 2.2935652,
        "telephone": "0148284350",
        "adresse_complete": "89 RUE DU COMMERCE, 75015 PARIS 15"
    },
    {
        "name": "PHARMACIE RIVE GAUCHE",
        "lat": 48.8460554,
        "lng": 2.277998,
        "telephone": "0145780145",
        "adresse_complete": "4 AVENUE EMILE ZOLA, 75015 PARIS 15"
    },
    {
        "name": "PHARMACIE DU MIDI",
        "lat": 48.8421252,
        "lng": 2.2904369,
        "telephone": "0145541548",
        "adresse_complete": "38 AVENUE FELIX FAURE, 75015 PARIS 15"
    },
    {
        "name": "PHARMACIE DE BIR HAKEIM",
        "lat": 48.8537653,
        "lng": 2.289141,
        "telephone": "0145773330",
        "adresse_complete": "6 BOULEVARD DE GRENELLE, 75015 PARIS 15"
    },
    {
        "name": "PHARMACIE 77 PICQUET GRENELLE",
        "lat": 48.8503399,
        "lng": 2.2945661,
        "telephone": "0147341145",
        "adresse_complete": "77 BOULEVARD DE GRENELLE, 75015 PARIS 15"
    },
    {
        "name": "PHARMACIE BARUC",
        "lat": 48.8384712,
        "lng": 2.2887008,
        "telephone": "0145576280",
        "adresse_complete": "276 RUE LECOURBE, 75015 PARIS 15"
    },
    {
        "name": "PHARMACIE OCEANE",
        "lat": 48.8493651,
        "lng": 2.291455,
        "telephone": "0145788618",
        "adresse_complete": "19 RUE DE LOURMEL, 75015 PARIS 15"
    },
    {
        "name": "PHARMACIE HOMEOPATHIQUE GENERALE",
        "lat": 48.8485234,
        "lng": 2.3028352,
        "telephone": "0145671808",
        "adresse_complete": "37 AVENUE DE LOWENDAL, 75015 PARIS 15"
    },
    {
        "name": "PHARMACIE BARBELET",
        "lat": 48.8418293,
        "lng": 2.3130284,
        "telephone": "0143209789",
        "adresse_complete": "40 BOULEVARD PASTEUR, 75015 PARIS 15"
    },
    {
        "name": "PHARMACIE D ALLERAY",
        "lat": 48.8370128,
        "lng": 2.3060462,
        "telephone": "0148285810",
        "adresse_complete": "48 RUE PAUL BARRUEL, 75015 PARIS 15"
    },
    {
        "name": "PHARMACIE DU FRONT DE SEINE",
        "lat": 48.8471467,
        "lng": 2.292651,
        "telephone": "0145791543",
        "adresse_complete": "9 RUE DU THEATRE, 75015 PARIS 15"
    },
    {
        "name": "SARL PHARMACIE DU THEATRE ANPKL",
        "lat": 48.8488575,
        "lng": 2.2880307,
        "telephone": "0145771565",
        "adresse_complete": "42 RUE DU THEATRE, 75015 PARIS 15"
    },
    {
        "name": "PHARMACIE VALENTIN HAUY",
        "lat": 48.8465664,
        "lng": 2.3086873,
        "telephone": "0143068184",
        "adresse_complete": "15 RUE VALENTIN HAUY, 75015 PARIS 15"
    },
    {
        "name": "PHARMACIE VAUGIRARD",
        "lat": 48.8406234,
        "lng": 2.3051789,
        "telephone": "0147837888",
        "adresse_complete": "245 RUE DE VAUGIRARD, 75015 PARIS 15"
    },
    {
        "name": "SELAS PHARMACIE DU PHARE",
        "lat": 48.8335885,
        "lng": 2.3094645,
        "telephone": "0148284742",
        "adresse_complete": "57 RUE DE VOUILLE, 75015 PARIS 15"
    },
    {
        "name": "PHARMACIE SYLVIE LEIBA",
        "lat": 48.8409168,
        "lng": 2.2911033,
        "telephone": "0147347048",
        "adresse_complete": "19 RUE DE LA CROIX NIVERT, 75015 PARIS 15"
    },
    {
        "name": "PHARMACIE DE LA CROIX BLEUE",
        "lat": 48.8503731,
        "lng": 2.2590268714826,
        "telephone": "0142880796",
        "adresse_complete": "43 RUE D AUTEUIL, 75016 PARIS 16"
    },
    {
        "name": "PHARMACIE DE LA PORTE D AUTEUIL",
        "lat": 48.8503731,
        "lng": 2.2590268714826,
        "telephone": "0142882738",
        "adresse_complete": "52 RUE D AUTEUIL, 75016 PARIS 16"
    },
    {
        "name": "GRANDE PHARMACIE JOUVENET",
        "lat": 48.8431038,
        "lng": 2.2650017,
        "telephone": "0142883761",
        "adresse_complete": "49 RUE CHARDON LAGACHE, 75016 PARIS 16"
    },
    {
        "name": "FONTAINE PHARMA",
        "lat": 48.85063,
        "lng": 2.271287,
        "telephone": "0145270162",
        "adresse_complete": "35 RUE DE LA FONTAINE, 75016 PARIS 16"
    },
    {
        "name": "PHARMACIE CENTRALE D AUTEUIL",
        "lat": 48.848251,
        "lng": 2.264435,
        "telephone": "0142880486",
        "adresse_complete": "122 RUE LA FONTAINE, 75016 PARIS 16"
    },
    {
        "name": "PHARM ALTOUNIAN DAMBREVILLE",
        "lat": 48.8515906,
        "lng": 2.2678256,
        "telephone": "0142885333",
        "adresse_complete": "101 AVENUE MOZART, 75016 PARIS 16"
    },
    {
        "name": "SELARL PHARMACIE LEVY TEBOUL",
        "lat": 48.8389743,
        "lng": 2.2654897,
        "telephone": "0146514974",
        "adresse_complete": "92 BOULEVARD MURAT, 75016 PARIS 16"
    },
    {
        "name": "PHARM JOUANNE",
        "lat": 48.857809,
        "lng": 2.2774307,
        "telephone": "0142880176",
        "adresse_complete": "2 PL DE PASSY, 75016 PARIS 16"
    },
    {
        "name": "PHARMACIE BOULAINVILLIERS",
        "lat": 48.8559682,
        "lng": 2.2750029,
        "telephone": "0142882178",
        "adresse_complete": "48 RUE DE BOULAINVILLIERS, 75016 PARIS 16"
    },
    {
        "name": "PHARM REMUSAT",
        "lat": 48.8481247,
        "lng": 2.271359,
        "telephone": "0145251850",
        "adresse_complete": "14 RUE DE REMUSAT, 75016 PARIS 16"
    },
    {
        "name": "SELARL LA PHARMACIE DU LYCEE",
        "lat": 48.8400463,
        "lng": 2.2640942,
        "telephone": "0142887664",
        "adresse_complete": "181 AVENUE DE VERSAILLES, 75016 PARIS 16"
    },
    {
        "name": "PHARM LAMOTHE",
        "lat": 48.8409897,
        "lng": 2.2657799,
        "telephone": "0142883337",
        "adresse_complete": "167 AVENUE DE VERSAILLES, 75016 PARIS 16"
    },
    {
        "name": "SARL PHARMACIE ZANA",
        "lat": 48.86820406,
        "lng": 2.27550656,
        "telephone": "0147273676",
        "adresse_complete": "63 RUE DE LA FAISANDERIE, 75016 PARIS 16"
    },
    {
        "name": "PHARMACIE DE LA PEROUSE",
        "lat": 48.87223248,
        "lng": 2.29515087,
        "telephone": "0145006066",
        "adresse_complete": "37 RUE LA PEROUSE, 75016 PARIS 16"
    },
    {
        "name": "PHARM PLACE DE MEXICO",
        "lat": 48.8656041,
        "lng": 2.28297606,
        "telephone": "0147279228",
        "adresse_complete": "91 RUE DE LONGCHAMP, 75016 PARIS 16"
    },
    {
        "name": "PHARMACIE GALLIERA",
        "lat": 48.8656231,
        "lng": 2.29563899,
        "telephone": "0147208528",
        "adresse_complete": "8 AVENUE PIERRE 1ER SERBIE, 75016 PARIS 16"
    },
    {
        "name": "SELARL PHIE HOMEOPATHIQUE CENTRALE",
        "lat": 48.8631878,
        "lng": 2.2765333,
        "telephone": "0147279908",
        "adresse_complete": "126 RUE DE LA POMPE, 75016 PARIS 16"
    },
    {
        "name": "PHARMACIE GALERIE ST DIDIER",
        "lat": 48.86689782,
        "lng": 2.28408739,
        "telephone": "0147271472",
        "adresse_complete": "37 RUE SAINT DIDIER, 75016 PARIS 16"
    },
    {
        "name": "PHARM VICTOR HUGO",
        "lat": 48.86649013,
        "lng": 2.27786466,
        "telephone": "0147276814",
        "adresse_complete": "156 AVENUE VICTOR HUGO, 75016 PARIS 16"
    },
    {
        "name": "PHARM LA FOURCHE 17",
        "lat": 48.8893683,
        "lng": 2.3223298,
        "telephone": "0145227617",
        "adresse_complete": "74 AVENUE DE CLICHY, 75017 PARIS 17"
    },
    {
        "name": "PHARMACIE MINEL",
        "lat": 48.8893683,
        "lng": 2.3223298,
        "telephone": "0146276750",
        "adresse_complete": "123 AVENUE DE CLICHY, 75017 PARIS 17"
    },
    {
        "name": "PHARMACIE DE LA CROIX D OR",
        "lat": 48.8798862,
        "lng": 2.3022233,
        "telephone": "0147635363",
        "adresse_complete": "85 RUE DE COURCELLES, 75017 PARIS 17"
    },
    {
        "name": "SELARL PHARMACIE FOURCROY",
        "lat": 48.881251,
        "lng": 2.2982861,
        "telephone": "0142274694",
        "adresse_complete": "27 RUE FOURCROY, 75017 PARIS 17"
    },
    {
        "name": "PHARMACIE DE LA PORTE MAILLOT",
        "lat": 48.8771737,
        "lng": 2.2854626,
        "telephone": "0145741731",
        "adresse_complete": "68 AVENUE DE LA GRANDE ARM\u00c9E, 75017 PARIS 17"
    },
    {
        "name": "SELAS PHARMACIE ABITBOL",
        "lat": 48.887141,
        "lng": 2.313621,
        "telephone": "0147634899",
        "adresse_complete": "1 RUE JOUFFROY D ABBANS, 75017 PARIS 17"
    },
    {
        "name": "PHARMACIE JOUFFROY",
        "lat": 48.8861534,
        "lng": 2.31016517,
        "telephone": "0147635680",
        "adresse_complete": "25 RUE JOUFFROY D ABBANS, 75017 PARIS 17"
    },
    {
        "name": "PHARM BURBOT",
        "lat": 48.8870247,
        "lng": 2.3231796,
        "telephone": "0143876555",
        "adresse_complete": "25 RUE LA CONDAMINE, 75017 PARIS 17"
    },
    {
        "name": "PHARM CASTAGNET",
        "lat": 48.8938465,
        "lng": 2.3219921,
        "telephone": "0146270886",
        "adresse_complete": "58 RUE DE LA JONQUIERE, 75017 PARIS 17"
    },
    {
        "name": "PHARM DES MOINES",
        "lat": 48.8880797,
        "lng": 2.3186755,
        "telephone": "0146271414",
        "adresse_complete": "26 RUE DES MOINES, 75017 PARIS 17"
    },
    {
        "name": "PHARMACIE CASSAM RAHEMTOLA",
        "lat": 48.8817183,
        "lng": 2.2959871,
        "telephone": "0147633723",
        "adresse_complete": "36 AVENUE NIEL, 75017 PARIS 17"
    },
    {
        "name": "PHARMACIE DU 17E",
        "lat": 48.8839221,
        "lng": 2.3006586,
        "telephone": "0147632155",
        "adresse_complete": "80 RUE DE PRONY, 75017 PARIS 17"
    },
    {
        "name": "PHARMACIE SOUIED",
        "lat": 48.8901483,
        "lng": 2.3264696,
        "telephone": "0146272232",
        "adresse_complete": "121 AVENUE DE SAINT OUEN, 75017 PARIS 17"
    },
    {
        "name": "PHARMACIE DES TROIS AVENUES",
        "lat": 48.8783503,
        "lng": 2.2947778,
        "telephone": "0146222812",
        "adresse_complete": "29 AVENUE DES TERNES, 75017 PARIS 17"
    },
    {
        "name": "PHARMACIE DE VILLIERS",
        "lat": 48.8817165,
        "lng": 2.3153279,
        "telephone": "0147633651",
        "adresse_complete": "8 AVENUE DE VILLIERS, 75017 PARIS 17"
    },
    {
        "name": "PHARMACIE HELIOPOLIS",
        "lat": 48.8852336,
        "lng": 2.2938639,
        "telephone": "0143808746",
        "adresse_complete": "131 AVENUE DE VILLIERS, 75017 PARIS 17"
    },
    {
        "name": "PHARMACIE STIOUI",
        "lat": 48.8836629,
        "lng": 2.3048246,
        "telephone": "0147637394",
        "adresse_complete": "71 AVENUE DE VILLIERS, 75017 PARIS 17"
    },
    {
        "name": "SELAS PHARMACIE CHATEAU ROUGE",
        "lat": 48.8873962,
        "lng": 2.3499568,
        "telephone": "0146066396",
        "adresse_complete": "48 BOULEVARD BARBES, 75018 PARIS 18"
    },
    {
        "name": "PHARMACIE ESPACE CONSEIL",
        "lat": 48.8884767,
        "lng": 2.349789,
        "telephone": "0146060261",
        "adresse_complete": "64 BOULEVARD BARBES, 75018 PARIS 18"
    },
    {
        "name": "PHARMACIE MATHIEU LE MAREC",
        "lat": 48.8897314,
        "lng": 2.3413901,
        "telephone": "0146061556",
        "adresse_complete": "106 RUE CAULAINCOURT, 75018 PARIS 18"
    },
    {
        "name": "PHARMACIE DE LA CHAPELLE",
        "lat": 48.8915013,
        "lng": 2.3596583,
        "telephone": "0142090639",
        "adresse_complete": "17 RUE DE LA CHAPELLE, 75018 PARIS 18"
    },
    {
        "name": "PHARMACIE NAQROUZ",
        "lat": 48.8979868,
        "lng": 2.3586706,
        "telephone": "0142056045",
        "adresse_complete": "93 RUE DE LA CHAPELLE, 75018 PARIS 18"
    },
    {
        "name": "PHARMACIE CUSTINE",
        "lat": 48.8898115,
        "lng": 2.3432205,
        "telephone": "0146062057",
        "adresse_complete": "62 RUE CUSTINE, 75018 PARIS 18"
    },
    {
        "name": "PHARMACIE DOUDEAUVILLE",
        "lat": 48.8883594,
        "lng": 2.3493799,
        "telephone": "0146061970",
        "adresse_complete": "25 RUE DOUDEAUVILLE, 75018 PARIS 18"
    },
    {
        "name": "SARL PHARMACIE HADJ ALI",
        "lat": 48.8875966,
        "lng": 2.3534752,
        "telephone": "0146065408",
        "adresse_complete": "2 RUE LEON, 75018 PARIS 18"
    },
    {
        "name": "GRANDE PHARMACIE MARCADET",
        "lat": 48.891377,
        "lng": 2.3378183,
        "telephone": "0146065820",
        "adresse_complete": "141 RUE MARCADET, 75018 PARIS 18"
    },
    {
        "name": "PHARM DUPRE",
        "lat": 48.8889521,
        "lng": 2.359872,
        "telephone": "0146076783",
        "adresse_complete": "39 RUE MARX DORMOY, 75018 PARIS 18"
    },
    {
        "name": "PHIE DE LA PORTE D AUBERVILIERS",
        "lat": 48.8982027,
        "lng": 2.3527857,
        "telephone": "0140362070",
        "adresse_complete": "26 BOULEVARD NEY, 75018 PARIS 18"
    },
    {
        "name": "SELARL PHARMACIE PORTE MONTMARTRE",
        "lat": 48.8982027,
        "lng": 2.3527857,
        "telephone": "0146062429",
        "adresse_complete": "142 BOULEVARD NEY, 75018 PARIS 18"
    },
    {
        "name": "PHARMACIE ORDENER",
        "lat": 48.8939071,
        "lng": 2.3343602,
        "telephone": "0146060776",
        "adresse_complete": "143 RUE ORDENER, 75018 PARIS 18"
    },
    {
        "name": "PHARMACIE EUROPEENNE",
        "lat": 48.8964073,
        "lng": 2.3456278,
        "telephone": "0142571720",
        "adresse_complete": "16 BOULEVARD ORNANO, 75018 PARIS 18"
    },
    {
        "name": "GRANDE PHARMACIE PARIS ORNANO",
        "lat": 48.8959724,
        "lng": 2.3464176,
        "telephone": "0146068556",
        "adresse_complete": "5 PL ALBERT KAHN, 75018 PARIS 18"
    },
    {
        "name": "PHARMACIE DU BLD NEY",
        "lat": 48.898037,
        "lng": 2.336978,
        "telephone": "0142231787",
        "adresse_complete": "1 AVENUE PTE DE MONTMARTRE, 75018 PARIS 18"
    },
    {
        "name": "PHARM ZEDERMAN",
        "lat": 48.8942506,
        "lng": 2.3414298,
        "telephone": "0146065010",
        "adresse_complete": "40 RUE DU POTEAU, 75018 PARIS 18"
    },
    {
        "name": "PHARMACIE MARCHAL GEORGEL",
        "lat": 48.8954321,
        "lng": 2.3282892,
        "telephone": "0146274725",
        "adresse_complete": "90 AVENUE DE SAINT OUEN, 75018 PARIS 18"
    },
    {
        "name": "SELAS PHARMACIE DU MARCHE DEJEAN",
        "lat": 48.8875671,
        "lng": 2.3526583,
        "telephone": "0146062918",
        "adresse_complete": "23 RUE DE SUEZ, 75018 PARIS 18"
    },
    {
        "name": "PHARMACIE CENTRALE",
        "lat": 48.8954622,
        "lng": 2.3624592,
        "telephone": "0140365492",
        "adresse_complete": "2 PL PIERRE MAC ORLAN, 75018 PARIS 18"
    },
    {
        "name": "PHARMACIE SAINT GERVAIS",
        "lat": 48.8803175,
        "lng": 2.3987766,
        "telephone": "0142086195",
        "adresse_complete": "1 RUE ALPHONSE AULARD, 75019 PARIS 19"
    },
    {
        "name": "PHARM TAIEB",
        "lat": 48.8931234,
        "lng": 2.3801748,
        "telephone": "0140362336",
        "adresse_complete": "60 AVENUE DE FLANDRE, 75019 PARIS 19"
    },
    {
        "name": "PHARM DE LA GEODE",
        "lat": 48.8931234,
        "lng": 2.3801748,
        "telephone": "0140050704",
        "adresse_complete": "118 AVENUE DE FLANDRE, 75019 PARIS 19"
    },
    {
        "name": "PHARMACIE DE FLANDRE",
        "lat": 48.8931234,
        "lng": 2.3801748,
        "telephone": "0140366693",
        "adresse_complete": "167 AVENUE DE FLANDRE, 75019 PARIS 19"
    },
    {
        "name": "PHARMACIE DALOY",
        "lat": 48.8771538,
        "lng": 2.3954278,
        "telephone": "0153386000",
        "adresse_complete": "15 RUE HENRI RIBIERE, 75019 PARIS 19"
    },
    {
        "name": "PHARMACIE DE L OURCQ",
        "lat": 48.8842247,
        "lng": 2.3760131,
        "telephone": "0142082771",
        "adresse_complete": "148 AVENUE JEAN JAURES, 75019 PARIS 19"
    },
    {
        "name": "PHARMACIE REBEVAL",
        "lat": 48.8747422,
        "lng": 2.3804815,
        "telephone": "0142086149",
        "adresse_complete": "50 RUE REBEVAL, 75019 PARIS 19"
    },
    {
        "name": "PHARMACIE DU PARC",
        "lat": 48.8760036,
        "lng": 2.3808312,
        "telephone": "0142084103",
        "adresse_complete": "43 AVENUE SIMON BOLIVAR, 75019 PARIS 19"
    },
    {
        "name": "SARL PHARMACIE BOLIVAR 99",
        "lat": 48.8774567,
        "lng": 2.3739296,
        "telephone": "0140400570",
        "adresse_complete": "99 AVENUE SIMON BOLIVAR, 75019 PARIS 19"
    },
    {
        "name": "MME DANIELE SITBON",
        "lat": 48.8842247,
        "lng": 2.3760131,
        "telephone": "0142082994",
        "adresse_complete": "121 AVENUE JEAN JAURES, 75019 PARIS 19"
    },
    {
        "name": "GRANDE PHARMACIE D AVRON",
        "lat": 48.852041,
        "lng": 2.40159,
        "telephone": "0143732351",
        "adresse_complete": "43 RUE D AVRON, 75020 PARIS 20"
    },
    {
        "name": "PHARMACIE CENTRALE D AVRON",
        "lat": 48.85217213,
        "lng": 2.40319281,
        "telephone": "0143732606",
        "adresse_complete": "56 RUE D AVRON, 75020 PARIS 20"
    },
    {
        "name": "PHARM DELARBRE",
        "lat": 48.85277599,
        "lng": 2.40650743,
        "telephone": "0143720859",
        "adresse_complete": "100 RUE D AVRON, 75020 PARIS 20"
    },
    {
        "name": "SELAS PHARMACIE MONTE CRISTO",
        "lat": 48.8567988,
        "lng": 2.3973058,
        "telephone": "0143703224",
        "adresse_complete": "30 RUE DE BAGNOLET, 75020 PARIS 20"
    },
    {
        "name": "PHARMACIE DU MARCHE SAINT HONORE",
        "lat": 48.8661307,
        "lng": 2.3311526,
        "telephone": "0142610049",
        "adresse_complete": "7 RUE DU MARCHE ST HONORE, 75001 PARIS 01"
    },
    {
        "name": "PHARMACIE SAINT EUSTACHE",
        "lat": 48.864107,
        "lng": 2.3464971,
        "telephone": "0142362426",
        "adresse_complete": "23 RUE MONTORGUEIL, 75001 PARIS 01"
    },
    {
        "name": "PHARMACIE DES PETITS CHAMPS",
        "lat": 48.86652,
        "lng": 2.337673,
        "telephone": "0142969720",
        "adresse_complete": "21 RUE DES PETITS CHAMPS, 75001 PARIS 01"
    },
    {
        "name": "PHARMACIE TACAPES",
        "lat": 48.8671939,
        "lng": 2.3347785,
        "telephone": "0142965964",
        "adresse_complete": "55 RUE DES PETITS CHAMPS, 75001 PARIS 01"
    },
    {
        "name": "PHARMACIE GAIDOZ",
        "lat": 48.8685958,
        "lng": 2.3251268,
        "telephone": "0142608614",
        "adresse_complete": "12 RUE DU CHEVALIER DE ST GEORGE, 75001 PARIS 01"
    },
    {
        "name": "PHARMACIE DU PALAIS ROYAL",
        "lat": 48.862191,
        "lng": 2.3396426,
        "telephone": "0142603436",
        "adresse_complete": "164 RUE SAINT HONORE, 75001 PARIS 01"
    },
    {
        "name": "PHARMACIE DE CHOISEUL",
        "lat": 48.8705556,
        "lng": 2.3358864,
        "telephone": "0147426732",
        "adresse_complete": "23 RUE DE CHOISEUL, 75002 PARIS 02"
    },
    {
        "name": "PHARMACIE OPERA CASANOVA",
        "lat": 48.867716,
        "lng": 2.333023,
        "telephone": "0142614893",
        "adresse_complete": "6 RUE DANIELLE CASANOVA, 75002 PARIS 02"
    },
    {
        "name": "PHARMACIE DES GRANDS BOULEVARDS",
        "lat": 48.8711873,
        "lng": 2.3430728,
        "telephone": "0142332396",
        "adresse_complete": "178 RUE MONTMARTRE, 75002 PARIS 02"
    },
    {
        "name": "GRANDE PHARMACIE LA PAIX OPERA",
        "lat": 48.8699314,
        "lng": 2.3320751,
        "telephone": "0147425625",
        "adresse_complete": "24 RUE DE LA PAIX, 75002 PARIS 02"
    },
    {
        "name": "PHARMACIE MODERNE DU SENTIER",
        "lat": 48.8667193,
        "lng": 2.3471361,
        "telephone": "0145085316",
        "adresse_complete": "7 RUE DES PETITS CARREAUX, 75002 PARIS 02"
    },
    {
        "name": "PHARMACIE INTERNATIONALE CENTRALE",
        "lat": 48.8626681,
        "lng": 2.3495752,
        "telephone": "0145085108",
        "adresse_complete": "143 RUE SAINT DENIS, 75002 PARIS 02"
    },
    {
        "name": "PHARMACIE BEAUMARCHAIS",
        "lat": 48.8593755,
        "lng": 2.3673858,
        "telephone": "0142786299",
        "adresse_complete": "91 BOULEVARD BEAUMARCHAIS, 75003 PARIS 03"
    },
    {
        "name": "SELARL PHARMACIE BEAUBOURG",
        "lat": 48.8616411,
        "lng": 2.3519859,
        "telephone": "0148877819",
        "adresse_complete": "54 RUE RAMBUTEAU, 75003 PARIS 03"
    },
    {
        "name": "PHARMACIE CANONNE",
        "lat": 48.8658876,
        "lng": 2.352556,
        "telephone": "0142775757",
        "adresse_complete": "88 BOULEVARD DE SEBASTOPOL, 75003 PARIS 03"
    },
    {
        "name": "PHARM PHAYPRADITH",
        "lat": 48.8638,
        "lng": 2.3585657,
        "telephone": "0142784227",
        "adresse_complete": "143 RUE DU TEMPLE, 75003 PARIS 03"
    },
    {
        "name": "GRANDE PHARM DE TURENNE",
        "lat": 48.8611347,
        "lng": 2.364488,
        "telephone": "0142784263",
        "adresse_complete": "95 RUE DE TURENNE, 75003 PARIS 03"
    },
    {
        "name": "PHARMACIE HENRI IV",
        "lat": 48.8519985,
        "lng": 2.3647948,
        "telephone": "0148877447",
        "adresse_complete": "27 BOULEVARD HENRI IV, 75004 PARIS 04"
    },
    {
        "name": "PHARMACIE DE L ILE SAINT LOUIS",
        "lat": 48.8530396,
        "lng": 2.3537559,
        "telephone": "0143543909",
        "adresse_complete": "8 RUE JEAN DU BELLAY, 75004 PARIS 04"
    },
    {
        "name": "PHARMACIE RAMBUTEAU",
        "lat": 48.8601034,
        "lng": 2.3566031,
        "telephone": "0142727559",
        "adresse_complete": "1 RUE RAMBUTEAU, 75004 PARIS 04"
    },
    {
        "name": "PHARM BATTINO BORGEL",
        "lat": 48.8535523,
        "lng": 2.3657926,
        "telephone": "0142720475",
        "adresse_complete": "21 RUE SAINT ANTOINE, 75004 PARIS 04"
    },
    {
        "name": "SELARL PHARMACIE DE LA TOUR",
        "lat": 48.8583244,
        "lng": 2.3499582,
        "telephone": "0148877470",
        "adresse_complete": "18 RUE SAINT MARTIN, 75004 PARIS 04"
    },
    {
        "name": "PHARMACIE DES HALLES",
        "lat": 48.8591827,
        "lng": 2.3488081,
        "telephone": "0142720323",
        "adresse_complete": "10 BOULEVARD DE SEBASTOPOL, 75004 PARIS 04"
    },
    {
        "name": "MME MAIWENN LOIREAU",
        "lat": 48.8480432,
        "lng": 2.3510093,
        "telephone": "0143268240",
        "adresse_complete": "6 RUE DES ECOLES, 75005 PARIS 05"
    },
    {
        "name": "PHARMACIE 5",
        "lat": 48.8486599,
        "lng": 2.3487031,
        "telephone": "0143268084",
        "adresse_complete": "20 RUE DES \u00c9COLES, 75005 PARIS 05"
    },
    {
        "name": "PHARMACIE DU JARDIN DES PLANTES",
        "lat": 48.8411238,
        "lng": 2.36264996,
        "telephone": "0143315064",
        "adresse_complete": "28 BOULEVARD DE L HOPITAL, 75005 PARIS 05"
    },
    {
        "name": "PHARMACIE NOTRE DAME",
        "lat": 48.8512219,
        "lng": 2.3481929,
        "telephone": "0143542077",
        "adresse_complete": "11 RUE LAGRANGE, 75005 PARIS 05"
    },
    {
        "name": "PHARMACIE LAXAN",
        "lat": 48.8407303,
        "lng": 2.3515551,
        "telephone": "0143317290",
        "adresse_complete": "96 RUE MONGE, 75005 PARIS 05"
    },
    {
        "name": "PHARMACIE DU VAL DE GRACE",
        "lat": 48.8407915,
        "lng": 2.3406684,
        "telephone": "0143265650",
        "adresse_complete": "6 PL ALPHONSE LAVERAN, 75005 PARIS 05"
    },
    {
        "name": "PHARMACIE SAINT MARCEL",
        "lat": 48.8375463,
        "lng": 2.3536048,
        "telephone": "0143312060",
        "adresse_complete": "76 BOULEVARD SAINT MARCEL, 75005 PARIS 05"
    },
    {
        "name": "SELARL PHARMACIE DE LA SORBONNE",
        "lat": 48.8499214,
        "lng": 2.3434061,
        "telephone": "0143542610",
        "adresse_complete": "49 RUE DES ECOLES, 75005 PARIS 05"
    },
    {
        "name": "PHARM CANILLAC",
        "lat": 48.8459997,
        "lng": 2.3198044,
        "telephone": "0147348888",
        "adresse_complete": "122 RUE DU CHERCHE MIDI, 75006 PARIS 06"
    },
    {
        "name": "PHARMACIE FLORENCE BOUBERT",
        "lat": 48.8559452,
        "lng": 2.3328547,
        "telephone": "0142602737",
        "adresse_complete": "48 RUE JACOB, 75006 PARIS 06"
    },
    {
        "name": "PHARMACIE STANISLAS",
        "lat": 48.8465829,
        "lng": 2.3273297,
        "telephone": "0145488641",
        "adresse_complete": "7 RUE NOTRE DAME DES CHAMPS, 75006 PARIS 06"
    },
    {
        "name": "PHARMACIE JUILLET",
        "lat": 48.8440591,
        "lng": 2.3291904,
        "telephone": "0145483453",
        "adresse_complete": "131 BOULEVARD RASPAIL, 75006 PARIS 06"
    },
    {
        "name": "PHARM SLAKMON",
        "lat": 48.8458505,
        "lng": 2.3259774,
        "telephone": "0145489725",
        "adresse_complete": "145 RUE DE RENNES, 75006 PARIS 06"
    },
    {
        "name": "PHARMACIE SAINT ANDRE DES ARTS",
        "lat": 48.8535776,
        "lng": 2.3389152,
        "telephone": "0143264824",
        "adresse_complete": "44 RUE SAINT ANDRE DES ARTS, 75006 PARIS 06"
    },
    {
        "name": "PHARM PLAIRE",
        "lat": 48.8555616,
        "lng": 2.3366897,
        "telephone": "0143289826",
        "adresse_complete": "28 RUE DE SEINE, 75006 PARIS 06"
    },
    {
        "name": "SELARL PHARMACIE DE BABYLONE",
        "lat": 48.8517847,
        "lng": 2.3257915,
        "telephone": "0145485424",
        "adresse_complete": "6 RUE DE BABYLONE, 75007 PARIS 07"
    },
    {
        "name": "PHARMACIE BAC SAINT GERMAIN",
        "lat": 48.8555391,
        "lng": 2.3250515,
        "telephone": "0145489974",
        "adresse_complete": "70 RUE DU BAC, 75007 PARIS 07"
    },
    {
        "name": "PHARMACIE DOREL VALIGNY",
        "lat": 48.8477014,
        "lng": 2.3122393,
        "telephone": "0147345735",
        "adresse_complete": "1 PL DE BRETEUIL, 75007 PARIS 07"
    },
    {
        "name": "PHARM COTINAT",
        "lat": 48.8578654,
        "lng": 2.3074783,
        "telephone": "0147054485",
        "adresse_complete": "151 RUE DE GRENELLE, 75007 PARIS 07"
    },
    {
        "name": "PHARMACIE DE LA TOUR EIFFEL",
        "lat": 48.8593786,
        "lng": 2.298096,
        "telephone": "0147051259",
        "adresse_complete": "24 RUE DE MONTTESSUY, 75007 PARIS 07"
    },
    {
        "name": "SARL PHARMACIE RAMAJO ANCOURT",
        "lat": 48.8597976,
        "lng": 2.3010849,
        "telephone": "0147054125",
        "adresse_complete": "23 AVENUE RAPP, 75007 PARIS 07"
    },
    {
        "name": "PHARMACIE CENTRALE VANEAU BABYLONE",
        "lat": 48.8518471,
        "lng": 2.3189437,
        "telephone": "0147050813",
        "adresse_complete": "40 RUE VANEAU, 75007 PARIS 07"
    },
    {
        "name": "PHARMACIE ECOLE MILITAIRE",
        "lat": 48.8541283,
        "lng": 2.3084409,
        "telephone": "0147055538",
        "adresse_complete": "26 AVENUE DE TOURVILLE, 75007 PARIS 07"
    },
    {
        "name": "PHARM LUDERS",
        "lat": 48.87340754,
        "lng": 2.32433125,
        "telephone": "0142653593",
        "adresse_complete": "39 RUE DE L ARCADE, 75008 PARIS 08"
    },
    {
        "name": "PHARMACIE DES ACACIAS",
        "lat": 48.88301387,
        "lng": 2.325553,
        "telephone": "0143873563",
        "adresse_complete": "15 BOULEVARD DES BATIGNOLLES, 75008 PARIS 08"
    },
    {
        "name": "PHARMACIE DE BERRI",
        "lat": 48.87470109,
        "lng": 2.30817851,
        "telephone": "0145637067",
        "adresse_complete": "48 RUE DE BERRI, 75008 PARIS 08"
    },
    {
        "name": "PHARMACIE ANGLAISE DES CHAMPS ELYSEES",
        "lat": 48.8707851,
        "lng": 2.3055599,
        "telephone": "0143598230",
        "adresse_complete": "62 AVENUE DES CHAMPS ELYS\u00c9ES, 75008 PARIS 08"
    },
    {
        "name": "PHARM DU DRUGSTORE DES CHAMPS ELYSEES",
        "lat": 48.8727993,
        "lng": 2.297003,
        "telephone": "0147203925",
        "adresse_complete": "133 AVENUE DES CHAMPS ELYSEES, 75008 PARIS 08"
    },
    {
        "name": "SELARL PHARMACIE BRINGER - GRINTAIN",
        "lat": 48.87769371,
        "lng": 2.30601937,
        "telephone": "0147664232",
        "adresse_complete": "63 RUE DE COURCELLES, 75008 PARIS 08"
    },
    {
        "name": "PHARMACIE FRIEDLAND",
        "lat": 48.8741607,
        "lng": 2.300587,
        "telephone": "0145611278",
        "adresse_complete": "29 AVENUE DE FRIEDLAND, 75008 PARIS 08"
    },
    {
        "name": "M SERGE LEVY",
        "lat": 48.87796301,
        "lng": 2.31608427,
        "telephone": "0145221041",
        "adresse_complete": "64 BOULEVARD MALESHERBES, 75008 PARIS 08"
    },
    {
        "name": "PHARMACIE MIROMESNIL",
        "lat": 48.87540266,
        "lng": 2.31576607,
        "telephone": "0145221059",
        "adresse_complete": "58 RUE DE MIROMESNIL, 75008 PARIS 08"
    },
    {
        "name": "GRANDE PHARMACIE DE LA PLACE BLANCHE",
        "lat": 48.8839611,
        "lng": 2.3323216,
        "telephone": "0148747799",
        "adresse_complete": "5 PL BLANCHE, 75009 PARIS 09"
    },
    {
        "name": "SELARL PHARMACIE BRELET",
        "lat": 48.8799981,
        "lng": 2.3313436,
        "telephone": "0148744180",
        "adresse_complete": "35 RUE BLANCHE, 75009 PARIS 09"
    },
    {
        "name": "PHARMACIE CAUMARTIN",
        "lat": 48.8718619,
        "lng": 2.3282461,
        "telephone": "0142651028",
        "adresse_complete": "24 RUE DE CAUMARTIN, 75009 PARIS 09"
    },
    {
        "name": "PHARMACIE DE LA TRINITE",
        "lat": 48.8762595,
        "lng": 2.3326027,
        "telephone": "0148741313",
        "adresse_complete": "57 RUE DE CHATEAUDUN, 75009 PARIS 09"
    },
    {
        "name": "PHARMACIE DE LA CHAUSSEE D ANTIN",
        "lat": 48.87421086,
        "lng": 2.33275071,
        "telephone": "0148742106",
        "adresse_complete": "54 RUE DE LA CHAUSS\u00c9E D ANTIN, 75009 PARIS 09"
    },
    {
        "name": "PHARMACIE DROUOT",
        "lat": 48.8739328,
        "lng": 2.3406145,
        "telephone": "0147700400",
        "adresse_complete": "19 RUE DROUOT, 75009 PARIS 09"
    },
    {
        "name": "PHARMACIE LA FAYETTE",
        "lat": 48.8737927,
        "lng": 2.3355997,
        "telephone": "0148740786",
        "adresse_complete": "11 RUE LA FAYETTE, 75009 PARIS 09"
    },
    {
        "name": "SELAS PHARMACIE BENDAYAN",
        "lat": 48.8760706,
        "lng": 2.3402927,
        "telephone": "0148787311",
        "adresse_complete": "61 RUE DE MAUBEUGE, 75009 PARIS 09"
    },
    {
        "name": "PHARMACIE SAINT GEORGES",
        "lat": 48.8789636,
        "lng": 2.3369894,
        "telephone": "0148780013",
        "adresse_complete": "38 RUE NOTRE DAME DE LORETTE, 75009 PARIS 09"
    },
    {
        "name": "PHARMACIE DU CARREFOUR",
        "lat": 48.8819994,
        "lng": 2.3397196,
        "telephone": "0148784374",
        "adresse_complete": "5 BOULEVARD DE ROCHECHOUART, 75009 PARIS 09"
    },
    {
        "name": "PHARMACIE ROSE",
        "lat": 48.8768292,
        "lng": 2.3360129,
        "telephone": "0148741338",
        "adresse_complete": "34 RUE SAINT LAZARE, 75009 PARIS 09"
    },
    {
        "name": "PHARMACIE SAINT LAZARE",
        "lat": 48.8758728,
        "lng": 2.3299227,
        "telephone": "0148741111",
        "adresse_complete": "87 RUE SAINT LAZARE, 75009 PARIS 09"
    },
    {
        "name": "PHARMACIE D ANVERS",
        "lat": 48.8819985,
        "lng": 2.3461114,
        "telephone": "0148785608",
        "adresse_complete": "2 AVENUE TRUDAINE, 75009 PARIS 09"
    },
    {
        "name": "GRANDE PHARMACIE MASSE",
        "lat": 48.8807769,
        "lng": 2.3384256,
        "telephone": "0148783314",
        "adresse_complete": "1 RUE VICTOR MASSE, 75009 PARIS 09"
    },
    {
        "name": "PHARMACIE DES ARTS",
        "lat": 48.8808971,
        "lng": 2.3375428,
        "telephone": "0148784034",
        "adresse_complete": "29 RUE VICTOR MASSE, 75009 PARIS 09"
    },
    {
        "name": "BRITISH AND AMERICAN PHARMACY",
        "lat": 48.871275,
        "lng": 2.3312505,
        "telephone": "0142658829",
        "adresse_complete": "1 RUE AUBER, 75009 PARIS 09"
    },
    {
        "name": "PHARMACIE ANGLAISE DE LA GARE DU NORD",
        "lat": 48.8799626,
        "lng": 2.3536843,
        "telephone": "0148780403",
        "adresse_complete": "2 RUE DE COMPIEGNE, 75010 PARIS 10"
    },
    {
        "name": "PHARM MIMOUNI",
        "lat": 48.87054301,
        "lng": 2.37279652,
        "telephone": "0142007639",
        "adresse_complete": "91 RUE DU FBG DU TEMPLE, 75010 PARIS 10"
    },
    {
        "name": "PHARM BENHAMOU",
        "lat": 48.86997393,
        "lng": 2.35279237,
        "telephone": "0147700670",
        "adresse_complete": "2 RUE DU FBG SAINT DENIS, 75010 PARIS 10"
    },
    {
        "name": "LA PHARMACIE DES PASSAGES",
        "lat": 48.87329489,
        "lng": 2.35470593,
        "telephone": "0147701303",
        "adresse_complete": "80 RUE DU FBG SAINT DENIS, 75010 PARIS 10"
    },
    {
        "name": "PHARM SEING",
        "lat": 48.8712118,
        "lng": 2.3603663,
        "telephone": "0142082030",
        "adresse_complete": "29 BOULEVARD DE MAGENTA, 75010 PARIS 10"
    },
    {
        "name": "PHARMACIE OSTROM",
        "lat": 48.8737777,
        "lng": 2.3585474,
        "telephone": "0142088769",
        "adresse_complete": "62 BOULEVARD DE MAGENTA, 75010 PARIS 10"
    },
    {
        "name": "PHARMACIE DE LA SCALA",
        "lat": 48.8701607,
        "lng": 2.3545088,
        "telephone": "0145231214",
        "adresse_complete": "11 BOULEVARD DE STRASBOURG, 75010 PARIS 10"
    },
    {
        "name": "PHARM BUI CHAMPENOIS THIEN NGOC PHUONG",
        "lat": 48.8739638,
        "lng": 2.3745299,
        "telephone": "0142398964",
        "adresse_complete": "31 BOULEVARD DE LA VILLETTE, 75010 PARIS 10"
    },
    {
        "name": "PHARMACIE BOTZARIS",
        "lat": 48.8794528,
        "lng": 2.3873421,
        "telephone": "0142452995",
        "adresse_complete": "72 RUE BOTZARIS, 75019 PARIS 19"
    },
    {
        "name": "PHARMACIE COURONNES",
        "lat": 48.86920676,
        "lng": 2.3800756,
        "telephone": "0143571607",
        "adresse_complete": "43 BOULEVARD DE BELLEVILLE, 75011 PARIS 11"
    },
    {
        "name": "PHARMACIE LES FILLES DU CALVAIRE",
        "lat": 48.862041,
        "lng": 2.366958,
        "telephone": "0147008144",
        "adresse_complete": "2 BOULEVARD DES FILLES CALVAIRE, 75011 PARIS 11"
    },
    {
        "name": "PHARM TRAMONI",
        "lat": 48.8504827,
        "lng": 2.39025861,
        "telephone": "0143734429",
        "adresse_complete": "62 RUE DE MONTREUIL, 75011 PARIS 11"
    },
    {
        "name": "NATION PHARMACIE",
        "lat": 48.84907033,
        "lng": 2.39711906,
        "telephone": "0143732403",
        "adresse_complete": "13 PL DE LA NATION, 75011 PARIS 11"
    },
    {
        "name": "PHARMACIE DES ECOLES",
        "lat": 48.8582119,
        "lng": 2.3827902,
        "telephone": "0143790595",
        "adresse_complete": "150 RUE DE LA ROQUETTE, 75011 PARIS 11"
    },
    {
        "name": "PHARMACIE VOLTAIRE",
        "lat": 48.8575917,
        "lng": 2.3805149,
        "telephone": "0147004274",
        "adresse_complete": "29 BOULEVARD VOLTAIRE, 75011 PARIS 11"
    },
    {
        "name": "PHARMACIE VOLTAIRE DUMAS",
        "lat": 48.8575917,
        "lng": 2.3805149,
        "telephone": "0143710830",
        "adresse_complete": "199 BOULEVARD VOLTAIRE, 75011 PARIS 11"
    },
    {
        "name": "PHARMACIE D ALIGRE",
        "lat": 48.8473286,
        "lng": 2.3778406,
        "telephone": "0143075585",
        "adresse_complete": "103 RUE DE CHARENTON, 75012 PARIS 12"
    },
    {
        "name": "PHARMACIE DU TRAIN BLEU",
        "lat": 48.847246,
        "lng": 2.3859056,
        "telephone": "0143439695",
        "adresse_complete": "21 BOULEVARD DIDEROT, 75012 PARIS 12"
    },
    {
        "name": "SNC PHARMACIE MORCHOISNE ET CHHUN",
        "lat": 48.84097695,
        "lng": 2.40468264,
        "telephone": "0143077525",
        "adresse_complete": "2 AVENUE DR ARNOLD NETTER, 75012 PARIS 12"
    },
    {
        "name": "GRANDE PHARMACIE DAUMESNIL",
        "lat": 48.8391951,
        "lng": 2.3956606,
        "telephone": "0143431154",
        "adresse_complete": "6 PL FELIX EBOUE, 75012 PARIS 12"
    },
    {
        "name": "SELARL PHARMACIE TRAN",
        "lat": 48.84691026,
        "lng": 2.36952002,
        "telephone": "0143430996",
        "adresse_complete": "24 AVENUE LEDRU ROLLIN, 75012 PARIS 12"
    },
    {
        "name": "PHARM GABIN",
        "lat": 48.848329,
        "lng": 2.371037,
        "telephone": "0143077338",
        "adresse_complete": "35 RUE DE LYON, 75012 PARIS 12"
    },
    {
        "name": "PHARMACIE DRAI SOUFFIR",
        "lat": 48.8398698,
        "lng": 2.4006627,
        "telephone": "0143439768",
        "adresse_complete": "10 BOULEVARD DE PICPUS, 75012 PARIS 12"
    },
    {
        "name": "PHARMACIE DICHAMP",
        "lat": 48.8392364,
        "lng": 2.389437,
        "telephone": "0143435424",
        "adresse_complete": "1 BOULEVARD DE REUILLY, 75012 PARIS 12"
    },
    {
        "name": "PHARMACIE VERTE DE REUILLY",
        "lat": 48.8403314,
        "lng": 2.3952135,
        "telephone": "0143432442",
        "adresse_complete": "127 RUE DE REUILLY, 75012 PARIS 12"
    },
    {
        "name": "PHARMACIE CENTRALE SAINT MANDE",
        "lat": 48.8452022,
        "lng": 2.3982084,
        "telephone": "0143077989",
        "adresse_complete": "94 AVENUE DE ST MANDE, 75012 PARIS 12"
    },
    {
        "name": "PHARMACIE BICHET",
        "lat": 48.8313105,
        "lng": 2.3609665,
        "telephone": "0145851508",
        "adresse_complete": "202 RUE DU CHATEAU DES RENTIERS, 75013 PARIS 13"
    },
    {
        "name": "SARL ADVANCE INVEST",
        "lat": 48.83450747,
        "lng": 2.36737937,
        "telephone": "0145848618",
        "adresse_complete": "199 RUE DU CHEVALERET, 75013 PARIS 13"
    },
    {
        "name": "PHARMACIE DES PEUPLIERS",
        "lat": 48.8270993,
        "lng": 2.3671009,
        "telephone": "0145892642",
        "adresse_complete": "164 RUE DE TOLBIAC, 75013 PARIS 13"
    },
    {
        "name": "PHARMACIE ROUX",
        "lat": 48.8195,
        "lng": 2.3101,
        "telephone": "0142534517",
        "adresse_complete": "64 AVENUE PIERRE BROSSOLETTE, 92240 MALAKOFF"
    },
    {
        "name": "PHARM  HELARY ANNE",
        "lat": 48.8113,
        "lng": 2.29525,
        "telephone": "0146554553",
        "adresse_complete": "21 BOULEVARD DE STALINGRAD, 92240 MALAKOFF"
    },
    {
        "name": "PHARMACIE DES QUATRE SAISONS",
        "lat": 48.8079,
        "lng": 2.236,
        "telephone": "0145341053",
        "adresse_complete": "32 RUE DE LA REPUBLIQUE, 92190 MEUDON"
    },
    {
        "name": "PHARM DE LA VERVILLE",
        "lat": 48.553717,
        "lng": 2.429951,
        "telephone": "0164998185",
        "adresse_complete": " CTRE COMMERCIAL, 91540 MENNECY"
    },
    {
        "name": "PHARM SANCHEZ",
        "lat": 48.5702,
        "lng": 2.4363,
        "telephone": "0164570288",
        "adresse_complete": "3 AVENUE DU BOIS CHAPET, 91540 MENNECY"
    },
    {
        "name": "SELURL PHARM VALERIE MECHIN",
        "lat": 48.4029,
        "lng": 2.46985,
        "telephone": "0164988097",
        "adresse_complete": "48  GRANDE RUE, 91490 MILLY LA FORET"
    },
    {
        "name": "PHARM DU CENTRE",
        "lat": 48.7064,
        "lng": 2.45666,
        "telephone": "0169035130",
        "adresse_complete": "65 AVENUE DE LA REPUBLIQUE, 91230 MONTGERON"
    },
    {
        "name": "PHARM DU PARC",
        "lat": 48.6667,
        "lng": 2.35386,
        "telephone": "0169046020",
        "adresse_complete": "28 RUE DE SAVIGNY, 91390 MORSANG SUR ORGE"
    },
    {
        "name": "SELARL PHARM DU GUICHET",
        "lat": 48.7037,
        "lng": 2.19171,
        "telephone": "0169285359",
        "adresse_complete": "49 RUE CHARLES DE GAULLE, 91400 ORSAY"
    },
    {
        "name": "PHARM ROULOT CORINNE",
        "lat": 48.6981,
        "lng": 2.18494,
        "telephone": "0169284020",
        "adresse_complete": "17 BOULEVARD DUBREUIL, 91400 ORSAY"
    },
    {
        "name": "PHARMACIE DES ECOLES",
        "lat": 48.7179,
        "lng": 2.24041,
        "telephone": "0160141066",
        "adresse_complete": "84 RUE LOUISE BRUNEAU, 91120 PALAISEAU"
    },
    {
        "name": "PHARM DU VAL D YERRES",
        "lat": 48.6714,
        "lng": 2.54587,
        "telephone": "0169008123",
        "adresse_complete": "  , 91480 QUINCY SOUS SENART"
    },
    {
        "name": "PHARM N'GBE",
        "lat": 48.6511,
        "lng": 2.4037,
        "telephone": "0169063507",
        "adresse_complete": "60 ROUTE DE GRIGNY, 91130 RIS ORANGIS"
    },
    {
        "name": "PHARM DE LA GARE",
        "lat": 48.6529,
        "lng": 2.31569,
        "telephone": "0160161489",
        "adresse_complete": "3 AVENUE P V COUTURIER, 91700 STE GENEVIEVE DES BOIS"
    },
    {
        "name": "PHARM DU COTTAGE",
        "lat": 48.6439,
        "lng": 2.31503,
        "telephone": "0160150303",
        "adresse_complete": "105 AVENUE SALVADOR ALLENDE PDT, 91700 STE GENEVIEVE DES BOIS"
    },
    {
        "name": "PHARM DU CENTRE",
        "lat": 48.5963,
        "lng": 2.25533,
        "telephone": "0164900105",
        "adresse_complete": "4 RES LOUIS BABIN, 91180 ST GERMAIN LES ARPAJON"
    },
    {
        "name": "PHARM GABISON GANDOLPHE",
        "lat": 48.5981,
        "lng": 2.28055,
        "telephone": "0160840979",
        "adresse_complete": "  CTRE CCIAL  JULES VALLES, 91180 ST GERMAIN LES ARPAJON"
    },
    {
        "name": "PHARM BERLIOZ",
        "lat": 48.6369,
        "lng": 2.32091,
        "telephone": "0160161520",
        "adresse_complete": "28 RUE HECTOR BERLIOZ, 91240 ST MICHEL SUR ORGE"
    },
    {
        "name": "PHARM GOUDENEGE",
        "lat": 48.6382,
        "lng": 2.31174,
        "telephone": "0160157473",
        "adresse_complete": "53 ROUTE DE STE GENEVIEVE, 91240 ST MICHEL SUR ORGE"
    },
    {
        "name": "PHARM DECLERT",
        "lat": 48.5981,
        "lng": 2.49771,
        "telephone": "0169893020",
        "adresse_complete": "124 ROUTE DE MELUN, 91250 SAINTRY SUR SEINE"
    },
    {
        "name": "SELARL PHARMACIE DU MONTOIR",
        "lat": 48.688,
        "lng": 2.35809,
        "telephone": "0169963128",
        "adresse_complete": "104 BOULEVARD ARISTIDE BRIAND, 91600 SAVIGNY SUR ORGE"
    },
    {
        "name": "PHARM BOURQUIN MARIE",
        "lat": 48.6848,
        "lng": 2.33008,
        "telephone": "0169050709",
        "adresse_complete": "4 PL BEAUMARCHAIS, 91600 SAVIGNY SUR ORGE"
    },
    {
        "name": "PHARM CAUFMENT JEAN",
        "lat": 48.6871,
        "lng": 2.35253,
        "telephone": "0169960398",
        "adresse_complete": "6 AVENUE DES ECOLES, 91600 SAVIGNY SUR ORGE"
    },
    {
        "name": "PHARM  ZINCK",
        "lat": 48.6481,
        "lng": 2.44949,
        "telephone": "0160750034",
        "adresse_complete": "11 BOULEVARD DE VANDEUIL, 91450 SOISY SUR SEINE"
    },
    {
        "name": "PHARM JACONO MICHELE",
        "lat": 48.7525,
        "lng": 2.27108,
        "telephone": "0169203401",
        "adresse_complete": "  LES PRES HAUTS, 91370 VERRIERES LE BUISSON"
    },
    {
        "name": "PHARM V. MARIANNE",
        "lat": 48.7434,
        "lng": 2.26233,
        "telephone": "0169202342",
        "adresse_complete": "81 RUE ESTIENNE D ORVES, 91370 VERRIERES LE BUISSON"
    },
    {
        "name": "PHARM KOLKIEWICZ",
        "lat": 48.5892,
        "lng": 2.45363,
        "telephone": "0160861473",
        "adresse_complete": "34 AVENUE DU 8 MAI 1945, 91100 VILLABE"
    },
    {
        "name": "SELAS PHARM CENTRALE",
        "lat": 48.6577,
        "lng": 2.2641,
        "telephone": "0164497284",
        "adresse_complete": " CTRE CIAL CARREFOUR, 91620 LA VILLE DU BOIS"
    },
    {
        "name": "PHARM  DE CONCY",
        "lat": 48.7113,
        "lng": 2.48647,
        "telephone": "0169488287",
        "adresse_complete": " CTRE CIAL DES JARDINS DE CONCY, 91330 YERRES"
    },
    {
        "name": "PHARM DONY LACLAIRE LAURENCE",
        "lat": 48.7076,
        "lng": 2.48798,
        "telephone": "0169483562",
        "adresse_complete": "60 RUE GABRIEL PERI, 91330 YERRES"
    },
    {
        "name": "PHARM DES ARCADES",
        "lat": 48.7206,
        "lng": 2.49727,
        "telephone": "0169482961",
        "adresse_complete": " AVENUE DE LA GRANGE, 91330 YERRES"
    },
    {
        "name": "PHARM LETIERCE JEAN",
        "lat": 48.7168,
        "lng": 2.50617,
        "telephone": "0169838604",
        "adresse_complete": "39 RUE PAUL DOUMER, 91330 YERRES"
    },
    {
        "name": "PHARM DE LA PYRAMIDE",
        "lat": 48.6862,
        "lng": 2.17003,
        "telephone": "0169076062",
        "adresse_complete": "128 AVENUE DES CHAMPS LASNIERS, 91940 LES ULIS"
    },
    {
        "name": "PHARM DU MOULIN M FRIMON",
        "lat": 48.6932,
        "lng": 2.27234,
        "telephone": "0160492020",
        "adresse_complete": "3 RUE DE L'ARPAJONNAIS, 91160 SAULX LES CHARTREUX"
    },
    {
        "name": "PHARM BADER JEAN PIERRE CHARLES",
        "lat": 48.7552,
        "lng": 2.30585,
        "telephone": "0146661078",
        "adresse_complete": "32 AVENUE ARISTIDE BRIAND, 92160 ANTONY"
    },
    {
        "name": "PHARM NGUYEN VU THUY CHI",
        "lat": 48.74,
        "lng": 2.28524,
        "telephone": "0142379033",
        "adresse_complete": "37 RUE DES GARENNES, 92160 ANTONY"
    },
    {
        "name": "PHARM BOXBERGER BONNARDOT",
        "lat": 48.7427,
        "lng": 2.29704,
        "telephone": "0142377730",
        "adresse_complete": "81 RUE MIRABEAU, 92160 ANTONY"
    },
    {
        "name": "PHARMACIE CHAU VINH",
        "lat": 48.7704,
        "lng": 2.31122,
        "telephone": "0147028602",
        "adresse_complete": "69 AVENUE RAYMOND ARON, 92160 ANTONY"
    },
    {
        "name": "PHARM  GRECOURT CORINNE",
        "lat": 48.9102,
        "lng": 2.28607,
        "telephone": "0147931223",
        "adresse_complete": "8 AVENUE D ARGENTEUIL, 92600 ASNIERES SUR SEINE"
    },
    {
        "name": "PHARMACIE DE LA COMETE",
        "lat": 48.9129,
        "lng": 2.28411,
        "telephone": "0147930315",
        "adresse_complete": "57 AVENUE D ARGENTEUIL, 92600 ASNIERES SUR SEINE"
    },
    {
        "name": "PHARM MARIE TRICOT",
        "lat": 48.9243,
        "lng": 2.28426,
        "telephone": "0147992754",
        "adresse_complete": "39 RUE EMILE ZOLA, 92600 ASNIERES SUR SEINE"
    },
    {
        "name": "PHARM REMTOULA",
        "lat": 48.9261,
        "lng": 2.28272,
        "telephone": "0147998191",
        "adresse_complete": "9 PL LE VAU, 92600 ASNIERES SUR SEINE"
    },
    {
        "name": "PHARM SEBAG CHARLES",
        "lat": 48.9063,
        "lng": 2.26864,
        "telephone": "0147935050",
        "adresse_complete": "1 RUE DE STRASBOURG, 92600 ASNIERES SUR SEINE"
    },
    {
        "name": "PHARM DJAFFARDJEE DJAFFARALY",
        "lat": 48.9152,
        "lng": 2.29394,
        "telephone": "0147932302",
        "adresse_complete": "62 BOULEVARD VOLTAIRE, 92600 ASNIERES SUR SEINE"
    },
    {
        "name": "PHARM MAI NEYRAUD-NGUYEN",
        "lat": 48.785,
        "lng": 2.30829,
        "telephone": "0146645973",
        "adresse_complete": "56 AVENUE DE BOURG LA REINE, 92220 BAGNEUX"
    },
    {
        "name": "PHARMACIE DES BAS LONGCHAMPS",
        "lat": 48.7899,
        "lng": 2.31158,
        "telephone": "0146630449",
        "adresse_complete": "  LES BAS LONGCHAMPS, 92220 BAGNEUX"
    },
    {
        "name": "PHARM  M. REBIBO HAIM",
        "lat": 48.9266,
        "lng": 2.27336,
        "telephone": "0142421339",
        "adresse_complete": "363 AVENUE D ARGENTEUIL, 92270 BOIS COLOMBES"
    },
    {
        "name": "PHARM LANDAU DIDIER LEOPOLD",
        "lat": 48.9146,
        "lng": 2.2745,
        "telephone": "0142421062",
        "adresse_complete": "55 RUE DES BOURGUIGNONS, 92270 BOIS COLOMBES"
    },
    {
        "name": "PHARMACIE NOUVELLE",
        "lat": 48.916,
        "lng": 2.27644,
        "telephone": "0142421228",
        "adresse_complete": "81 RUE DES BOURGUIGNONS, 92270 BOIS COLOMBES"
    },
    {
        "name": "PHARM CHICHE JEAN PAUL",
        "lat": 48.9171,
        "lng": 2.2652,
        "telephone": "0142421234",
        "adresse_complete": "3 AVENUE GAMBETTA, 92270 BOIS COLOMBES"
    },
    {
        "name": "PHARM ADAM PIERRE GASTON",
        "lat": 48.8331,
        "lng": 2.24834,
        "telephone": "0146217842",
        "adresse_complete": "23 RUE DANJOU, 92100 BOULOGNE BILLANCOURT"
    },
    {
        "name": "PHARM UZAN",
        "lat": 48.8428,
        "lng": 2.23819,
        "telephone": "0146050687",
        "adresse_complete": "32 BOULEVARD JEAN JAURES, 92100 BOULOGNE BILLANCOURT"
    },
    {
        "name": "PHARM EISENBETH PHILIPPE",
        "lat": 48.84,
        "lng": 2.23957,
        "telephone": "0146050312",
        "adresse_complete": "68 BOULEVARD JEAN JAURES, 92100 BOULOGNE BILLANCOURT"
    },
    {
        "name": "PHARM VAN EEKELEN",
        "lat": 48.8345,
        "lng": 2.24287,
        "telephone": "0146052085",
        "adresse_complete": "176 BOULEVARD JEAN JAURES, 92100 BOULOGNE BILLANCOURT"
    },
    {
        "name": "PHARM ATTALI-RAFOWICZ",
        "lat": 48.8284,
        "lng": 2.24661,
        "telephone": "0146214811",
        "adresse_complete": "247 BOULEVARD JEAN JAURES, 92100 BOULOGNE BILLANCOURT"
    },
    {
        "name": "PHARM BETTEVY F",
        "lat": 48.833,
        "lng": 2.25382,
        "telephone": "0146082861",
        "adresse_complete": "60 AVENUE PIERRE GRENIER, 92100 BOULOGNE BILLANCOURT"
    },
    {
        "name": "PHARMACIE DU STADE DE COUBERTIN",
        "lat": 48.835,
        "lng": 2.25512,
        "telephone": "0146202499",
        "adresse_complete": "105 AVENUE PIERRE GRENIER, 92100 BOULOGNE BILLANCOURT"
    },
    {
        "name": "PHARM OZIEL MICHELE",
        "lat": 48.8375,
        "lng": 2.23943,
        "telephone": "0146050994",
        "adresse_complete": "31 RUE LE CORBUSIER, 92100 BOULOGNE BILLANCOURT"
    },
    {
        "name": "MERGUI REINE",
        "lat": 48.8403,
        "lng": 2.23423,
        "telephone": "0146040062",
        "adresse_complete": "126 ROUTE DE LA REINE, 92100 BOULOGNE BILLANCOURT"
    },
    {
        "name": "PHARMACIE DE LA FAIENCERIE",
        "lat": 48.7866,
        "lng": 2.31834,
        "telephone": "0146650859",
        "adresse_complete": "15 AVENUE DU GENERAL LECLERC, 92340 BOURG LA REINE"
    },
    {
        "name": "PHARMACIE RINGENBACH",
        "lat": 48.7816,
        "lng": 2.31613,
        "telephone": "0146618729",
        "adresse_complete": "62 AVENUE DU GENERAL  LECLERC, 92340 BOURG LA REINE"
    },
    {
        "name": "PHARM SEYFRIED",
        "lat": 48.78,
        "lng": 2.31542,
        "telephone": "0146619696",
        "adresse_complete": "96 AVENUE DU GENERAL LECLERC, 92340 BOURG LA REINE"
    },
    {
        "name": "PHARM REGAT COVELIERS DANIELLE",
        "lat": 48.7704,
        "lng": 2.28036,
        "telephone": "0143505152",
        "adresse_complete": "40 RUE JEAN LONGUET, 92290 CHATENAY MALABRY"
    },
    {
        "name": "PHARM WECK",
        "lat": 48.8014,
        "lng": 2.28683,
        "telephone": "0146568786",
        "adresse_complete": "40 RUE GABRIEL PERI, 92320 CHATILLON"
    },
    {
        "name": "PHARM PAGANI NGUYEN VERONIQUE",
        "lat": 48.8149,
        "lng": 2.19353,
        "telephone": "0147504898",
        "adresse_complete": "667 AVENUE ROGER SALENGRO, 92370 CHAVILLE"
    },
    {
        "name": "PHARM HOTTIN FRANCOISE MARIE",
        "lat": 48.8019,
        "lng": 2.26557,
        "telephone": "0146420585",
        "adresse_complete": "8 RUE PAUL VAILLANT COUTUR, 92140 CLAMART"
    },
    {
        "name": "PHARM PEULTIER MAMAN MARJOLAINE",
        "lat": 48.8024,
        "lng": 2.26358,
        "telephone": "0146420374",
        "adresse_complete": "29 RUE PAUL VAILLANT COUTUR, 92140 CLAMART"
    },
    {
        "name": "PHARM DJIANE GELLEREAU ELISAB.",
        "lat": 48.7852,
        "lng": 2.2379,
        "telephone": "0146304913",
        "adresse_complete": "76 ROUTE DU PAVE BLANC, 92140 CLAMART"
    },
    {
        "name": "PHARMACIE DE LA PLAINE",
        "lat": 48.7828,
        "lng": 2.24202,
        "telephone": "0146300319",
        "adresse_complete": " RUE DE BRETAGNE, 92140 CLAMART"
    },
    {
        "name": "PHARM ENCAOUA",
        "lat": 48.8998,
        "lng": 2.30584,
        "telephone": "0147370335",
        "adresse_complete": "40 RUE HENRI BARBUSSE, 92110 CLICHY"
    },
    {
        "name": "PHARM LE BOULANGER NO\u00cbLLE",
        "lat": 48.9,
        "lng": 2.30625,
        "telephone": "0147371612",
        "adresse_complete": "46 RUE HENRI BARBUSSE, 92110 CLICHY"
    },
    {
        "name": "PHARMACIE EUROPEENNE DE CLICHY",
        "lat": 48.897,
        "lng": 2.30894,
        "telephone": "0147372274",
        "adresse_complete": "3 BOULEVARD JEAN JAURES, 92110 CLICHY"
    },
    {
        "name": "PHARM ALLIONE & BAROCAS",
        "lat": 48.9023,
        "lng": 2.30422,
        "telephone": "0147371443",
        "adresse_complete": "83 BOULEVARD JEAN JAURES, 92110 CLICHY"
    },
    {
        "name": "PHARMACIE PORTE CLICHY",
        "lat": 48.8971,
        "lng": 2.30779,
        "telephone": "0147371112",
        "adresse_complete": "13 RUE DE PARIS, 92110 CLICHY"
    },
    {
        "name": "PHARMACIE LECHAPPELLAIN",
        "lat": 48.9152,
        "lng": 2.24658,
        "telephone": "0142420699",
        "adresse_complete": "52 RUE EUGENE BESANCON, 92700 COLOMBES"
    },
    {
        "name": "PHARM  GUILLON THIERRY",
        "lat": 48.9261,
        "lng": 2.24299,
        "telephone": "0142429660",
        "adresse_complete": "33 AVENUE DE L EUROPE, 92700 COLOMBES"
    },
    {
        "name": "PHARM DOASSANS VERONIQUE",
        "lat": 48.9229,
        "lng": 2.25234,
        "telephone": "0142420620",
        "adresse_complete": "15 PL GENERAL LECLERC, 92700 COLOMBES"
    },
    {
        "name": "PHARM DRIGHES JOELLE",
        "lat": 48.9186,
        "lng": 2.25275,
        "telephone": "0142426416",
        "adresse_complete": "67 AVENUE HENRI BARBUSSE, 92700 COLOMBES"
    },
    {
        "name": "PHARM  CHICHE MARIE-PIERRE",
        "lat": 48.9199,
        "lng": 2.2281,
        "telephone": "0147801068",
        "adresse_complete": "235 RUE DU PDT SALVADOR ALLE, 92700 COLOMBES"
    },
    {
        "name": "PHARMACIE DU HAUT SAINT DENIS",
        "lat": 48.9239,
        "lng": 2.25393,
        "telephone": "0142420086",
        "adresse_complete": "71 RUE SAINT DENIS, 92700 COLOMBES"
    },
    {
        "name": "PHARM ADENIS JEAN-CHRISTIAN",
        "lat": 48.9025,
        "lng": 2.26849,
        "telephone": "0143331141",
        "adresse_complete": "101 RUE ARMAND SILVESTRE, 92400 COURBEVOIE"
    },
    {
        "name": "PHARMACIE DES DAMIERS",
        "lat": 48.8892,
        "lng": 2.25257,
        "telephone": "0147746998",
        "adresse_complete": "30 GAL DES  DAMIERS, 92400 COURBEVOIE"
    },
    {
        "name": "PHARM COURTOIS JACQUES",
        "lat": 48.8929,
        "lng": 2.24255,
        "telephone": "0147730993",
        "adresse_complete": "119 PAS HENRI REGNAULT, 92400 COURBEVOIE"
    },
    {
        "name": "PHARM DE LA GARE DE BECON",
        "lat": 48.905,
        "lng": 2.26932,
        "telephone": "0143330409",
        "adresse_complete": "3 AVENUE SEVERINE, 92400 COURBEVOIE"
    },
    {
        "name": "PHARM FORESTIER MARIE-CHRISTINE",
        "lat": 48.7868,
        "lng": 2.30034,
        "telephone": "0146611899",
        "adresse_complete": "87 AVENUE GABRIEL PERI, 92260 FONTENAY AUX ROSES"
    },
    {
        "name": "PHARM MUTSCHLER MARIE CHRISTINE",
        "lat": 48.7933,
        "lng": 2.2964,
        "telephone": "0146610661",
        "adresse_complete": "45 RUE MARX DORMOY, 92260 FONTENAY AUX ROSES"
    },
    {
        "name": "PHARM SPAGNAERTS COCHIN",
        "lat": 48.7859,
        "lng": 2.28153,
        "telephone": "0143507242",
        "adresse_complete": "38 AVENUE RAYMOND CROLAND, 92260 FONTENAY AUX ROSES"
    },
    {
        "name": "PHARM BARADAT",
        "lat": 48.8392,
        "lng": 2.18605,
        "telephone": "0147410430",
        "adresse_complete": "11 AVENUE JOFFRE, 92380 GARCHES"
    },
    {
        "name": "PHARMACIE DE L'HOTEL DE VILLE",
        "lat": 48.8437,
        "lng": 2.18668,
        "telephone": "0147410040",
        "adresse_complete": "9 AVENUE DU MAL LECLERC, 92380 GARCHES"
    },
    {
        "name": "PHARM BOYER DOMINIQUE MARIE LOU.",
        "lat": 48.9098,
        "lng": 2.24134,
        "telephone": "0142422145",
        "adresse_complete": "2 RUE EMILE DELSOL, 92250 LA GARENNE COLOMBES"
    },
    {
        "name": "PHARM SCALI COHEN ZRIHEN CLAUDI.",
        "lat": 48.9095,
        "lng": 2.24155,
        "telephone": "0142422192",
        "adresse_complete": "3 PL DU GAL LECLERC, 92250 LA GARENNE COLOMBES"
    },
    {
        "name": "PHARM TRAN NGUYEN QUE HUONG",
        "lat": 48.9043,
        "lng": 2.23506,
        "telephone": "0142426083",
        "adresse_complete": "10 RUE VEUVE LACROIX, 92250 LA GARENNE COLOMBES"
    },
    {
        "name": "PHARM FRANCOIS REGGIANI",
        "lat": 48.9041,
        "lng": 2.24951,
        "telephone": "0142420507",
        "adresse_complete": "48 RUE VOLTAIRE, 92250 LA GARENNE COLOMBES"
    },
    {
        "name": "PHARM BEAU CHRISTIANE",
        "lat": 48.907,
        "lng": 2.24062,
        "telephone": "0142422266",
        "adresse_complete": "5 PL DE BELGIQUE, 92250 LA GARENNE COLOMBES"
    },
    {
        "name": "PHARMACIE DE LA MAIRIE",
        "lat": 48.9243,
        "lng": 2.29472,
        "telephone": "0147988043",
        "adresse_complete": "134 AVENUE GABRIEL PERI, 92230 GENNEVILLIERS"
    },
    {
        "name": "PHARM  DABI",
        "lat": 48.8214,
        "lng": 2.27331,
        "telephone": "0146443891",
        "adresse_complete": "27 RUE LASSERRE, 92130 ISSY LES MOULINEAUX"
    },
    {
        "name": "PHARMACIE D'ISSY",
        "lat": 48.8273,
        "lng": 2.27971,
        "telephone": "0140934464",
        "adresse_complete": "44 RUE ERNEST RENAN, 92130 ISSY LES MOULINEAUX"
    },
    {
        "name": "PHARM ZIBI HERVE",
        "lat": 48.8287,
        "lng": 2.26541,
        "telephone": "0146422103",
        "adresse_complete": "21 RUE ROUGET DE L'ISLE, 92130 ISSY LES MOULINEAUX"
    },
    {
        "name": "PHARMACIE DES TROIS MOULINS",
        "lat": 48.8203,
        "lng": 2.25144,
        "telephone": "0146422389",
        "adresse_complete": "3 ALL SAINTE LUCIE, 92130 ISSY LES MOULINEAUX"
    },
    {
        "name": "PHARM NUZZO CLAIRE CAZAENTRE",
        "lat": 48.8196,
        "lng": 2.25967,
        "telephone": "0146422568",
        "adresse_complete": "44 BOULEVARD RODIN, 92130 ISSY LES MOULINEAUX"
    },
    {
        "name": "PHARM LEBORGNE HICHARD YVONNE",
        "lat": 48.8879,
        "lng": 2.46209,
        "telephone": "0148451372",
        "adresse_complete": "142 RUE DE BREMENT, 93130 NOISY LE SEC"
    },
    {
        "name": "PHARMACIE DE LA ROTONDE",
        "lat": 48.8995,
        "lng": 2.46429,
        "telephone": "0148473040",
        "adresse_complete": "29 AVENUE GALLIENI, 93130 NOISY LE SEC"
    },
    {
        "name": "SELARL PHARMACIE CENTRALE",
        "lat": 48.8908,
        "lng": 2.4536,
        "telephone": "0148452681",
        "adresse_complete": "1 RUE JEAN JAURES, 93130 NOISY LE SEC"
    },
    {
        "name": "LABI SYLVIA",
        "lat": 48.9047,
        "lng": 2.39329,
        "telephone": "0148450433",
        "adresse_complete": "30 AVENUE JEAN JAURES, 93500 PANTIN"
    },
    {
        "name": "PHARMACIE CHANZY",
        "lat": 48.9092,
        "lng": 2.51756,
        "telephone": "0148481064",
        "adresse_complete": "1 AVENUE DE CHANZY, 93320 LES PAVILLONS SOUS BOIS"
    },
    {
        "name": "SELAS PHARMACIE DU MARCHE",
        "lat": 48.9045,
        "lng": 2.50487,
        "telephone": "0148481849",
        "adresse_complete": "3 ALL ROBILLARD, 93320 LES PAVILLONS SOUS BOIS"
    },
    {
        "name": "PHARM  SAINTE-MARIE",
        "lat": 48.9662,
        "lng": 2.36101,
        "telephone": "0148265107",
        "adresse_complete": "57 RUE DE PARIS, 93380 PIERREFITTE SUR SEINE"
    },
    {
        "name": "PHARM KHAUV MICHEL",
        "lat": 48.8852,
        "lng": 2.40374,
        "telephone": "0148450558",
        "adresse_complete": "54 RUE ANDRE JOINEAU, 93310 LE PRE ST GERVAIS"
    },
    {
        "name": "PHARM NABET LAURENCE",
        "lat": 48.8827,
        "lng": 2.40858,
        "telephone": "0148450590",
        "adresse_complete": "33 AVENUE JEAN JAURES, 93310 LE PRE ST GERVAIS"
    },
    {
        "name": "PHARM  DEBUT PHILIPPE",
        "lat": 48.8762,
        "lng": 2.43671,
        "telephone": "0148450775",
        "adresse_complete": "1 RUE ALEMBERT, 93230 ROMAINVILLE"
    },
    {
        "name": "PHARM JAURES",
        "lat": 48.8809,
        "lng": 2.44176,
        "telephone": "0148452206",
        "adresse_complete": "41 RUE JEAN JAURES, 93230 ROMAINVILLE"
    },
    {
        "name": "PHARMACIE LE PAPE",
        "lat": 48.8715,
        "lng": 2.43848,
        "telephone": "0148570483",
        "adresse_complete": "20 RUE DU PROGRES, 93230 ROMAINVILLE"
    },
    {
        "name": "PHARM HAMOUCH",
        "lat": 48.8671,
        "lng": 2.4939,
        "telephone": "0148941636",
        "adresse_complete": "142 RUE DU GENERAL LECLERC, 93110 ROSNY SOUS BOIS"
    },
    {
        "name": "PHARM LETTERI JEAN-JACQUES",
        "lat": 48.8677,
        "lng": 2.49782,
        "telephone": "0148945479",
        "adresse_complete": "57 RUE DU RHIN, 93110 ROSNY SOUS BOIS"
    },
    {
        "name": "PHARM  MARTIN ANNIE",
        "lat": 48.9387,
        "lng": 2.37305,
        "telephone": "0148230844",
        "adresse_complete": "4 RUE DE LA FERME, 93200 ST DENIS"
    },
    {
        "name": "PHARM POPULAIRE DE SAINT DENIS",
        "lat": 48.9367,
        "lng": 2.35602,
        "telephone": "0148201349",
        "adresse_complete": "103 RUE GABRIEL PERI, 93200 ST DENIS"
    },
    {
        "name": "PHARM ASSAYAG MEYER",
        "lat": 48.9365,
        "lng": 2.35498,
        "telephone": "0148201592",
        "adresse_complete": "36 RUE DE LA REPUBLIQUE, 93200 ST DENIS"
    },
    {
        "name": "PHARM STERN RICHARD",
        "lat": 48.914485,
        "lng": 2.357374,
        "telephone": "0148200370",
        "adresse_complete": "225 AVENUE DU PRESIDENT WILSON, 93210 LA PLAINE ST DENIS"
    },
    {
        "name": "PHARMACIE MR IMBERT JEAN-CHARLES",
        "lat": 48.9168,
        "lng": 2.33063,
        "telephone": "0140110547",
        "adresse_complete": "5 RUE DE SAINT DENIS, 93400 ST OUEN"
    },
    {
        "name": "PHARM DES PRIMEVERES",
        "lat": 48.9257,
        "lng": 2.51876,
        "telephone": "0143838561",
        "adresse_complete": "32 ROUTE D AULNAY, 93270 SEVRAN"
    },
    {
        "name": "SARL PHARMACIE DU MARCHE",
        "lat": 48.9373,
        "lng": 2.52951,
        "telephone": "0143837571",
        "adresse_complete": "7 PL GASTON BUSSIERE, 93270 SEVRAN"
    },
    {
        "name": "PHARM LE LIGNE JEAN-MARIE",
        "lat": 48.9299,
        "lng": 2.54039,
        "telephone": "0143838287",
        "adresse_complete": "92 AVENUE DE LIVRY, 93270 SEVRAN"
    },
    {
        "name": "PHARM COUET-MOREAU",
        "lat": 48.956,
        "lng": 2.38274,
        "telephone": "0148266311",
        "adresse_complete": "2 RUE CARNOT, 93240 STAINS"
    },
    {
        "name": "PHARMACIE TOKO KAMGA",
        "lat": 48.9686,
        "lng": 2.37424,
        "telephone": "0148262013",
        "adresse_complete": " RUE PARMENTIER, 93240 STAINS"
    },
    {
        "name": "GRANDE PHARMACIE COMMERCIALE",
        "lat": 48.9512,
        "lng": 2.38138,
        "telephone": "0148210121",
        "adresse_complete": "42 AVENUE PAUL VAILLANT COUTURIER, 93240 STAINS"
    },
    {
        "name": "PHARMACIE DES ECOLES",
        "lat": 48.9595,
        "lng": 2.57203,
        "telephone": "0148609888",
        "adresse_complete": "78 AVENUE HENRI BARBUSSE, 93290 TREMBLAY EN FRANCE"
    },
    {
        "name": "PHARM BUDET THIERRY",
        "lat": 48.9533,
        "lng": 2.58191,
        "telephone": "0148606294",
        "adresse_complete": "33 AVENUE LOUIS DEQUET, 93290 TREMBLAY EN FRANCE"
    },
    {
        "name": "PHARM KRIEGEL MARIE MARTHE",
        "lat": 48.8405,
        "lng": 2.54928,
        "telephone": "0",
        "adresse_complete": " PROM JULES VALLES, 93160 NOISY LE GRAND"
    },
    {
        "name": "PHARM BERDUGO ALBERT",
        "lat": 48.9664,
        "lng": 2.54339,
        "telephone": "0143858470",
        "adresse_complete": "2 ALL A. DE SAINT EXUPERY, 93420 VILLEPINTE"
    },
    {
        "name": "PHARMACIE DU NAUTILUS",
        "lat": 49.0497,
        "lng": 2.00947,
        "telephone": "0134460816",
        "adresse_complete": "12 BOULEVARD DES MERVEILLES, 95800 CERGY"
    },
    {
        "name": "PHARM  LAM THUY PHONG",
        "lat": 48.9522,
        "lng": 2.27804,
        "telephone": "0134100537",
        "adresse_complete": "213 RUE D EPINAY, 95100 ARGENTEUIL"
    },
    {
        "name": "PHARM BAUDE & BLACHERE",
        "lat": 48.9406,
        "lng": 2.22441,
        "telephone": "0139825476",
        "adresse_complete": "154 AVENUE JEAN JAURES, 95100 ARGENTEUIL"
    },
    {
        "name": "PHARM PORTELLI L",
        "lat": 48.9389,
        "lng": 2.24314,
        "telephone": "0139610141",
        "adresse_complete": "70 RUE HENRI BARBUSSE, 95100 ARGENTEUIL"
    },
    {
        "name": "PHARM CIPRIANI JEAN LUC",
        "lat": 48.9511,
        "lng": 2.25377,
        "telephone": "0139471744",
        "adresse_complete": "28 BOULEVARD JEAN ALLEMANE, 95100 ARGENTEUIL"
    },
    {
        "name": "PHARM SOUVERVILLE",
        "lat": 48.948,
        "lng": 2.25553,
        "telephone": "0139611075",
        "adresse_complete": "2 BOULEVARD MAURICE BERTEAUX, 95100 ARGENTEUIL"
    },
    {
        "name": "PHARM VIDAL",
        "lat": 48.9955,
        "lng": 2.41764,
        "telephone": "0139850471",
        "adresse_complete": " RUE JEAN LAUGERE, 95400 ARNOUVILLE"
    },
    {
        "name": "PHARM DAUPHIN PHILIPPE",
        "lat": 49.0125,
        "lng": 2.19319,
        "telephone": "0130401166",
        "adresse_complete": "4 AVENUE DU GENERAL DE GAULLE, 95250 BEAUCHAMP"
    },
    {
        "name": "PHARM TEBOUL",
        "lat": 48.927,
        "lng": 2.21481,
        "telephone": "0139476947",
        "adresse_complete": "66 RUE EDOUARD VAILLANT, 95870 BEZONS"
    },
    {
        "name": "PHARMACIE FRANCO",
        "lat": 48.9257,
        "lng": 2.21146,
        "telephone": "0130767159",
        "adresse_complete": "106 RUE EDOUARD VAILLANT, 95870 BEZONS"
    },
    {
        "name": "PHARM OUBIHI",
        "lat": 48.9291,
        "lng": 2.21411,
        "telephone": "0130767723",
        "adresse_complete": "26 AVENUE GABRIEL PERI, 95870 BEZONS"
    },
    {
        "name": "PHARM BIENVENU-GALINIER M.A",
        "lat": 48.9377,
        "lng": 2.20686,
        "telephone": "0139827882",
        "adresse_complete": "2 RUE LUCIEN SAMPAIX, 95870 BEZONS"
    },
    {
        "name": "PHARM CHOAIN BODARD",
        "lat": 49.0763,
        "lng": 2.02899,
        "telephone": "0134421040",
        "adresse_complete": "8 RUE DE LA REPUBLIQUE, 95650 BOISSY L AILLERIE"
    },
    {
        "name": "PHARM LEFEBVRE RICQUEBOURG",
        "lat": 49.1398,
        "lng": 1.65824,
        "telephone": "0134677228",
        "adresse_complete": "25  GRANDE RUE, 95710 BRAY ET LU"
    },
    {
        "name": "PHARM GALLOIS BUGGIA B P",
        "lat": 49.0409,
        "lng": 2.07233,
        "telephone": "0130313253",
        "adresse_complete": "205 RUE DES CHENES BRUNS, 95000 CERGY"
    },
    {
        "name": "PHARM LACOMBE",
        "lat": 49.0371,
        "lng": 2.07907,
        "telephone": "0130734826",
        "adresse_complete": "7 RUE DES GALERIES, 95000 CERGY"
    },
    {
        "name": "PHARM DESENS DIONNE",
        "lat": 49.0499,
        "lng": 2.03423,
        "telephone": "0130389626",
        "adresse_complete": "1 RUE DES VOYAGEURS  GARE SNCF, 95000 CERGY"
    },
    {
        "name": "PHARM BARENGHIEN",
        "lat": 49.1603,
        "lng": 1.93495,
        "telephone": "0130397201",
        "adresse_complete": "21 RUE DE GISORS, 95750 CHARS"
    },
    {
        "name": "PHARM DOURET",
        "lat": 48.9762,
        "lng": 2.20341,
        "telephone": "0139780021",
        "adresse_complete": "106 RUE GABRIEL PERI, 95240 CORMEILLES EN PARISIS"
    },
    {
        "name": "PHARM ANNO M",
        "lat": 48.9727,
        "lng": 2.19046,
        "telephone": "0134506254",
        "adresse_complete": "50 BOULEVARD CLEMENCEAU, 95240 CORMEILLES EN PARISIS"
    },
    {
        "name": "PHARM BEAUFILS",
        "lat": 49.0457,
        "lng": 2.00338,
        "telephone": "0134460043",
        "adresse_complete": "17 CHE DES CYGNES, 95800 COURDIMANCHE"
    },
    {
        "name": "PHARM KPAMA",
        "lat": 48.9638,
        "lng": 2.32937,
        "telephone": "0134287889",
        "adresse_complete": "21 RUE ABEL FAUVEAU, 95170 DEUIL LA BARRE"
    },
    {
        "name": "PHARM DAUPHIN",
        "lat": 49.031,
        "lng": 2.33453,
        "telephone": "0139910165",
        "adresse_complete": "25 AVENUE JEAN JAURES, 95330 DOMONT"
    },
    {
        "name": "PHARM ESTRADE LEYMONIE",
        "lat": 48.9924,
        "lng": 2.28455,
        "telephone": "0139594249",
        "adresse_complete": "36 AVENUE DE PARIS, 95600 EAUBONNE"
    },
    {
        "name": "PHARM BARBOSA",
        "lat": 48.9912,
        "lng": 2.28798,
        "telephone": "0139594299",
        "adresse_complete": "66 AVENUE DE PARIS, 95600 EAUBONNE"
    },
    {
        "name": "PHARM DAUTRY-MAC FARLANE",
        "lat": 48.992,
        "lng": 2.28105,
        "telephone": "0139590118",
        "adresse_complete": "2 RUE DES TILLEULS, 95600 EAUBONNE"
    },
    {
        "name": "PHARM MESSE",
        "lat": 48.9694,
        "lng": 2.30458,
        "telephone": "0134126023",
        "adresse_complete": "2 AVENUE DE CEINTURE, 95880 ENGHIEN LES BAINS"
    },
    {
        "name": "PHARM MOUCHABAC ROGER",
        "lat": 48.9776,
        "lng": 2.30652,
        "telephone": "0139641561",
        "adresse_complete": "183 AVENUE DIVISION LECLERC, 95880 ENGHIEN LES BAINS"
    },
    {
        "name": "PHARM BITTON",
        "lat": 48.9714,
        "lng": 2.30814,
        "telephone": "0134126123",
        "adresse_complete": "23 RUE DU GENERAL DE GAULLE, 95880 ENGHIEN LES BAINS"
    },
    {
        "name": "PHARM BIGOT",
        "lat": 48.9681,
        "lng": 2.31035,
        "telephone": "0139646334",
        "adresse_complete": "8 PL DE VERDUN, 95880 ENGHIEN LES BAINS"
    },
    {
        "name": "PHARM DOUCE",
        "lat": 49.0186,
        "lng": 2.11232,
        "telephone": "0130375966",
        "adresse_complete": "6 ALL DES COQUELICOTS, 95610 ERAGNY SUR OISE"
    },
    {
        "name": "PHARM ETHODET NKAKE",
        "lat": 49.099,
        "lng": 2.52162,
        "telephone": "0134729823",
        "adresse_complete": "1 RUE CESAR FRANCK, 95470 FOSSES"
    },
    {
        "name": "SNC PHARM LESPAGNOL",
        "lat": 49.0992,
        "lng": 2.51058,
        "telephone": "0134729922",
        "adresse_complete": " AVENUE DE LA HAUTE GREVE  CC, 95470 FOSSES"
    },
    {
        "name": "PHARM UNG SAPHAN",
        "lat": 48.9823,
        "lng": 2.23201,
        "telephone": "0134132388",
        "adresse_complete": "2 SQUARE DES COTEAUX, 95130 FRANCONVILLE LA GARENNE"
    },
    {
        "name": "PHARM STEICHEN DARDAINE",
        "lat": 48.9851,
        "lng": 2.22498,
        "telephone": "0134137419",
        "adresse_complete": "125 RUE DU GENERAL LECLERC, 95130 FRANCONVILLE LA GARENNE"
    },
    {
        "name": "PHARMACIE EL QOTNI",
        "lat": 48.9704,
        "lng": 2.39325,
        "telephone": "0139865298",
        "adresse_complete": "  C COMMERCIAL ARC EN CIEL, 95140 GARGES LES GONESSE"
    },
    {
        "name": "PHARM  MOUALA",
        "lat": 48.9673,
        "lng": 2.39814,
        "telephone": "0139939944",
        "adresse_complete": "33 RUE DU TIERS POT, 95140 GARGES LES GONESSE"
    },
    {
        "name": "PHARM VIGOUROUX D",
        "lat": 48.9932,
        "lng": 2.42623,
        "telephone": "0139852828",
        "adresse_complete": " AVENUE GABRIEL PERI, 95500 GONESSE"
    },
    {
        "name": "PHARM GARAT RABAIN & GOMBEAU",
        "lat": 48.9867,
        "lng": 2.44862,
        "telephone": "0139856667",
        "adresse_complete": "5 RUE DE L HOTEL DIEU, 95500 GONESSE"
    },
    {
        "name": "PHARM AMMANOU",
        "lat": 49.0242,
        "lng": 2.46275,
        "telephone": "0139888789",
        "adresse_complete": "22 RUE LUCIEN MATHERON, 95190 GOUSSAINVILLE"
    },
    {
        "name": "PHARM NAIT ALI FARID",
        "lat": 49.0281,
        "lng": 2.46251,
        "telephone": "0139880493",
        "adresse_complete": "14 PL DE LA REPUBLIQUE, 95190 GOUSSAINVILLE"
    },
    {
        "name": "PHARM SOFIANOS PASCAL",
        "lat": 48.9989,
        "lng": 2.15189,
        "telephone": "0139788896",
        "adresse_complete": "135 RUE DE CONFLANS, 95220 HERBLAY"
    },
    {
        "name": "PHARM VALERY",
        "lat": 48.9911,
        "lng": 2.1668,
        "telephone": "0139971037",
        "adresse_complete": "11 PL DE LA LIBERATION, 95220 HERBLAY"
    },
    {
        "name": "PHARM BUSNEL",
        "lat": 48.9901,
        "lng": 2.16332,
        "telephone": "0139970788",
        "adresse_complete": "4 BOULEVARD OSCAR THEVENIN, 95220 HERBLAY"
    },
    {
        "name": "PHARM JOLY",
        "lat": 49.121,
        "lng": 2.22613,
        "telephone": "0134695285",
        "adresse_complete": "  GRAND PLACE, 95290 L ISLE ADAM"
    },
    {
        "name": "PHARM OFFNER",
        "lat": 49.1122,
        "lng": 2.21712,
        "telephone": "0134690003",
        "adresse_complete": "43  GRANDE RUE, 95290 L ISLE ADAM"
    },
    {
        "name": "PHARM DODIN MARTINE",
        "lat": 49.113,
        "lng": 2.22869,
        "telephone": "0134690373",
        "adresse_complete": "72 RUE DE NOGENT, 95290 L ISLE ADAM"
    },
    {
        "name": "PHARM ANICET BESSALA",
        "lat": 49.155,
        "lng": 1.78683,
        "telephone": "0134670038",
        "adresse_complete": "10 RUE DE PARIS, 95420 MAGNY EN VEXIN"
    },
    {
        "name": "PHARM CARNEL",
        "lat": 49.0972,
        "lng": 2.5179,
        "telephone": "0134682040",
        "adresse_complete": "137 AVENUE HENRI BARBUSSE, 95670 MARLY LA VILLE"
    },
    {
        "name": "PHARM VILLEMONT D",
        "lat": 49.0757,
        "lng": 2.20225,
        "telephone": "0134215238",
        "adresse_complete": "7 AVENUE VICTOR HUGO, 95630 MERIEL"
    },
    {
        "name": "PHARM DE LA CROIX BLANCHE",
        "lat": 49.0067,
        "lng": 2.19627,
        "telephone": "0139976732",
        "adresse_complete": "12 RES DE LA GARE, 95370 MONTIGNY LES CORMEILLES"
    },
    {
        "name": "PHARM ARMANET GENTIL M",
        "lat": 48.9752,
        "lng": 2.344,
        "telephone": "0139834239",
        "adresse_complete": "1 RUE DE MONTMORENCY, 95360 MONTMAGNY"
    },
    {
        "name": "PHARM MOLL FLOQUET F",
        "lat": 48.9746,
        "lng": 2.34651,
        "telephone": "0139830244",
        "adresse_complete": "2 RUE DU ONZE NOVEMBRE, 95360 MONTMAGNY"
    },
    {
        "name": "PHARM FRANCO",
        "lat": 48.9884,
        "lng": 2.31921,
        "telephone": "0139642013",
        "adresse_complete": "18 PL ROGER LEVANNEUR, 95160 MONTMORENCY"
    },
    {
        "name": "PHARM GUIOT",
        "lat": 49.0601,
        "lng": 2.06178,
        "telephone": "0130301548",
        "adresse_complete": "37 RUE ARISTIDE BRIAND, 95520 OSNY"
    },
    {
        "name": "PHARM BARATHE VANDANEIGEN C",
        "lat": 49.0496,
        "lng": 2.09159,
        "telephone": "0130311210",
        "adresse_complete": "35 PL NOTRE DAME, 95300 PONTOISE"
    },
    {
        "name": "PHARM BRESSON",
        "lat": 49.1159,
        "lng": 2.28138,
        "telephone": "0134700688",
        "adresse_complete": "94 RUE PIERRE BROSSOLETTE, 95590 PRESLES"
    },
    {
        "name": "PHARM NAMI-GOHAR FARZAD",
        "lat": 49.0001,
        "lng": 2.35569,
        "telephone": "0139900259",
        "adresse_complete": "44 RUE DE PARIS, 95350 ST BRICE SOUS FORET"
    },
    {
        "name": "PHARM MOUSSADJY M",
        "lat": 49.0188,
        "lng": 2.24341,
        "telephone": "0139600004",
        "adresse_complete": "53 RUE DU GENERAL LECLERC, 95320 ST LEU LA FORET"
    },
    {
        "name": "PHARM LAWNICZAK",
        "lat": 49.1081,
        "lng": 2.34852,
        "telephone": "0130357144",
        "adresse_complete": "2 RUE GABRIEL PERI, 95270 ST MARTIN DU TERTRE"
    },
    {
        "name": "PHARM POIRE",
        "lat": 49.0435,
        "lng": 2.1079,
        "telephone": "0134640140",
        "adresse_complete": " AVENUE DU GENERAL DE GAULLE, 95310 ST OUEN L AUMONE"
    },
    {
        "name": "PHARM LEBIGRE",
        "lat": 49.0445,
        "lng": 2.10786,
        "telephone": "0134640446",
        "adresse_complete": "6 AVENUE DU GENERAL DE GAULLE, 95310 ST OUEN L AUMONE"
    },
    {
        "name": "PHARM FLORAND",
        "lat": 48.9749,
        "lng": 2.25002,
        "telephone": "0139812800",
        "adresse_complete": "2 BOULEVARD GAMBETTA, 95110 SANNOIS"
    },
    {
        "name": "PHARM PASTEUR",
        "lat": 48.9686,
        "lng": 2.26684,
        "telephone": "0139812393",
        "adresse_complete": "25 BOULEVARD MAURICE BERTEAUX, 95110 SANNOIS"
    },
    {
        "name": "PHARM HACCOUN BERNARD",
        "lat": 48.9766,
        "lng": 2.3703,
        "telephone": "0139901337",
        "adresse_complete": "7 PL ANDRE GIDE, 95200 SARCELLES"
    },
    {
        "name": "PHARM TAN BONNA",
        "lat": 48.9737,
        "lng": 2.38212,
        "telephone": "0139862001",
        "adresse_complete": "11 BOULEVARD MAURICE RAVEL, 95200 SARCELLES"
    },
    {
        "name": "PHARM LE NET BOUEDO",
        "lat": 48.8119,
        "lng": 2.05144,
        "telephone": "0134603232",
        "adresse_complete": "3 SQUARE BUFFON, 78330 FONTENAY LE FLEURY"
    },
    {
        "name": "PHARM DU PARC MONTAIGNE",
        "lat": 48.8106,
        "lng": 2.04624,
        "telephone": "0134601850",
        "adresse_complete": "  , 78330 FONTENAY LE FLEURY"
    },
    {
        "name": "PHARM DUBATH PELISSIER",
        "lat": 48.8211,
        "lng": 1.75654,
        "telephone": "0134864122",
        "adresse_complete": "33 RUE DU GENERAL LECLERC, 78890 GARANCIERES"
    },
    {
        "name": "SELARL PHARM DES SAULES",
        "lat": 48.7837,
        "lng": 2.05508,
        "telephone": "0130441699",
        "adresse_complete": "5 SQUARE CAMILLE PISSARO, 78280 GUYANCOURT"
    },
    {
        "name": "PHARM HO KIM NEE NGUYEN",
        "lat": 48.7747,
        "lng": 2.0513,
        "telephone": "0130436870",
        "adresse_complete": "1 PL JACQUES BREL, 78280 GUYANCOURT"
    },
    {
        "name": "SNC PHARMACIE RICHARD ET ANGLES",
        "lat": 48.1377,
        "lng": 2.4763,
        "telephone": "0164299031",
        "adresse_complete": "28 RUE MONTGAUDIER, 77890 BEAUMONT DU GATINAIS"
    },
    {
        "name": "PHARMACIE DE BETON BAZOCHES",
        "lat": 48.7019,
        "lng": 3.24451,
        "telephone": "0164010114",
        "adresse_complete": "1 PL DE L'EGLISE, 77320 BETON BAZOCHES"
    },
    {
        "name": "PHARMACIE RIVET",
        "lat": 48.469,
        "lng": 2.70709,
        "telephone": "0160696100",
        "adresse_complete": "9 PL DE LA REPUBLIQUE, 77590 BOIS LE ROI"
    },
    {
        "name": "PHARMACIE DE BOURRON MARLOTTE",
        "lat": 48.3408,
        "lng": 2.71862,
        "telephone": "0164459138",
        "adresse_complete": "4 RUE MURGER, 77780 BOURRON MARLOTTE"
    },
    {
        "name": "PHARMACIE LEVRAULT",
        "lat": 48.4162,
        "lng": 3.23673,
        "telephone": "0160671057",
        "adresse_complete": "1 RUE DU BAILLAGE, 77480 BRAY SUR SEINE"
    },
    {
        "name": "PHARMACIE DU CHATEAU",
        "lat": 48.6919,
        "lng": 2.61187,
        "telephone": "0164050682",
        "adresse_complete": "12 RUE GAMBETTA, 77170 BRIE COMTE ROBERT"
    },
    {
        "name": "PHARMACIE DU MARCHE",
        "lat": 48.6913,
        "lng": 2.61015,
        "telephone": "0164050087",
        "adresse_complete": "6 PL DU MARCHE, 77170 BRIE COMTE ROBERT"
    },
    {
        "name": "PHARMACIE DE LA CROIX SAINT GEORGES",
        "lat": 48.8405,
        "lng": 2.70128,
        "telephone": "0164661796",
        "adresse_complete": "11 ALL DES DEUX CHATEAUX, 77600 BUSSY ST GEORGES"
    },
    {
        "name": "PHARMACIE DE LA FORET",
        "lat": 48.5542,
        "lng": 2.59296,
        "telephone": "0160630314",
        "adresse_complete": " CTRE DU BOIS DE SAINT LEU, 77240 CESSON"
    },
    {
        "name": "PHARMACIE CHOPPIN BRIGITTE MARIE",
        "lat": 48.8583,
        "lng": 2.58313,
        "telephone": "0164684219",
        "adresse_complete": "16 AVENUE JEAN JAURES, 77420 CHAMPS SUR MARNE"
    },
    {
        "name": "PHARMACIE DES ECOLES WEINSTEIN SYLVIE",
        "lat": 48.8407,
        "lng": 2.60574,
        "telephone": "0164685128",
        "adresse_complete": "6 PL PABLO PICASSO, 77420 CHAMPS SUR MARNE"
    },
    {
        "name": "PHARMACIE THEBAULT-TARTAGLIA",
        "lat": 48.9694,
        "lng": 2.75987,
        "telephone": "0160016160",
        "adresse_complete": "1 RUE DE LA MAIRIE, 77410 CHARNY"
    },
    {
        "name": "SARL PHARMACIE  GUIOT",
        "lat": 48.8857,
        "lng": 2.62164,
        "telephone": "0160201743",
        "adresse_complete": "180 RUE DES CITES, 77500 CHELLES"
    },
    {
        "name": "PHARMACIE LAPORTE",
        "lat": 48.8768,
        "lng": 2.58482,
        "telephone": "0160080068",
        "adresse_complete": "36 AVENUE DE LA RESISTANCE, 77500 CHELLES"
    },
    {
        "name": "PHARMACIE GUILLON JEAN",
        "lat": 48.8897,
        "lng": 2.58222,
        "telephone": "0164720203",
        "adresse_complete": " ROUTE DE MONTFERMEIL, 77500 CHELLES"
    },
    {
        "name": "PHARMACIE SAMPIERI JEAN LUC",
        "lat": 48.9395,
        "lng": 2.67734,
        "telephone": "0160264831",
        "adresse_complete": "44 AVENUE PASTEUR, 77410 CLAYE SOUILLY"
    },
    {
        "name": "PHARMACIE DE COLLEGIEN",
        "lat": 48.837,
        "lng": 2.67181,
        "telephone": "0160359079",
        "adresse_complete": "32 PL MIREILLE MORVAN, 77090 COLLEGIEN"
    },
    {
        "name": "PHARMACIE DU BEL AIR",
        "lat": 48.6662,
        "lng": 2.5588,
        "telephone": "0160607086",
        "adresse_complete": "30 PL DE L'AN 2000, 77380 COMBS LA VILLE"
    },
    {
        "name": "SARL PHARMACIE DU LAURENCON",
        "lat": 48.8555,
        "lng": 2.72504,
        "telephone": "0164023797",
        "adresse_complete": " RUE DE LA JONCHERE, 77600 CONCHES SUR GONDOIRE"
    },
    {
        "name": "PHARMACIE ORCIBAL CLAUDIE",
        "lat": 48.67,
        "lng": 2.69622,
        "telephone": "0164067141",
        "adresse_complete": "39 RUE JEAN JAURES, 77170 COUBERT"
    },
    {
        "name": "PHARMACIE CENTRALE",
        "lat": 48.8135,
        "lng": 3.08376,
        "telephone": "0164030023",
        "adresse_complete": "21 RUE BEAUREPAIRE, 77120 COULOMMIERS"
    },
    {
        "name": "EURL PHARMACIE DES TEMPLIERS",
        "lat": 48.8198,
        "lng": 3.09402,
        "telephone": "0164030629",
        "adresse_complete": "38 RUE DES CAILLETS, 77120 COULOMMIERS"
    },
    {
        "name": "PHARMACIE DES SAULES",
        "lat": 48.9075,
        "lng": 2.59792,
        "telephone": "0160202367",
        "adresse_complete": "6 RUE DES SAULES, 77181 COURTRY"
    },
    {
        "name": "PHARMACIE BOUDET",
        "lat": 48.9127,
        "lng": 2.59786,
        "telephone": "0164260383",
        "adresse_complete": "22 RUE DES ORMEAUX, 77181 COURTRY"
    },
    {
        "name": "SELAS PHARMACIE DU BEFFROI",
        "lat": 48.8573,
        "lng": 2.90876,
        "telephone": "0164638031",
        "adresse_complete": "9 RUE DU MARCHE, 77580 CRECY LA CHAPELLE"
    },
    {
        "name": "PHARMACIE MASANES CHRISTOPHE",
        "lat": 48.5125,
        "lng": 2.62684,
        "telephone": "0164372284",
        "adresse_complete": " RES DE L' ALSACE, 77190 DAMMARIE LES LYS"
    },
    {
        "name": "PHARM BASSANESI VAN GLABEKE CORINNE",
        "lat": 48.518,
        "lng": 2.62946,
        "telephone": "0164372206",
        "adresse_complete": " CCAL DE L'ABBAYE, 77190 DAMMARIE LES LYS"
    },
    {
        "name": "SELARL PELLETIER-ORBLIN PAGE",
        "lat": 48.7812,
        "lng": 3.30689,
        "telephone": "0164040023",
        "adresse_complete": "1 RUE VICTOR PLESSIER, 77320 LA FERTE GAUCHER"
    },
    {
        "name": "EURL PHARMACIE THEVENET",
        "lat": 48.9495,
        "lng": 3.13034,
        "telephone": "0160220044",
        "adresse_complete": "18 RUE DES PELLETIERS, 77260 LA FERTE SOUS JOUARRE"
    },
    {
        "name": "PHARM. DE LA SALAMANDRE - SELURL MASSE",
        "lat": 48.4059,
        "lng": 2.70209,
        "telephone": "0164222240",
        "adresse_complete": "78 RUE GRANDE, 77300 FONTAINEBLEAU"
    },
    {
        "name": "PHARMACIE GELY",
        "lat": 48.4085,
        "lng": 2.70389,
        "telephone": "0164224269",
        "adresse_complete": "129 RUE GRANDE, 77300 FONTAINEBLEAU"
    },
    {
        "name": "PHARMACIE PRINCIPALE",
        "lat": 48.4054,
        "lng": 2.6993,
        "telephone": "0164222925",
        "adresse_complete": "22 RUE DES SABLONS, 77300 FONTAINEBLEAU"
    },
    {
        "name": "PHARMACIE DU BREON",
        "lat": 48.7118,
        "lng": 2.85595,
        "telephone": "0164252801",
        "adresse_complete": "99 RUE BERTAUX, 77610 FONTENAY TRESIGNY"
    },
    {
        "name": "PHARMACIE HUET ALAIN ANDRE",
        "lat": 48.4839,
        "lng": 3.29351,
        "telephone": "0164007010",
        "adresse_complete": "12  GRANDE RUE, 77114 GOUAIX"
    },
    {
        "name": "PHARMACIE  BARHDAOUI M CHRISTINE",
        "lat": 48.3859,
        "lng": 2.90237,
        "telephone": "0164322149",
        "adresse_complete": "38  GRANDE RUE, 77130 LA GRANDE PAROISSE"
    },
    {
        "name": "SELARL PHARMACIE CHAPUIS",
        "lat": 48.665,
        "lng": 3.12864,
        "telephone": "0164015012",
        "adresse_complete": "2 RUE CLAUDE GAUTIER, 77970 JOUY LE CHATEL"
    },
    {
        "name": "PHARMACIE DE JUILLY",
        "lat": 49.0147,
        "lng": 2.70892,
        "telephone": "0164362756",
        "adresse_complete": "6 RUE DE LA SOURCE, 77230 JUILLY"
    },
    {
        "name": "PHARMACIE RAYNAL CATHERINE",
        "lat": 48.8761,
        "lng": 2.6978,
        "telephone": "0160077765",
        "adresse_complete": "28 AVENUE DU GENERAL LECLERC, 77400 LAGNY SUR MARNE"
    },
    {
        "name": "PHARMACIE DE LA GARE",
        "lat": 48.8407,
        "lng": 2.63207,
        "telephone": "0160172370",
        "adresse_complete": "17 MAIL GASTON PLANTE, 77185 LOGNES"
    },
    {
        "name": "PHARMACIE DE LOGNES",
        "lat": 48.8361,
        "lng": 2.63659,
        "telephone": "0164110130",
        "adresse_complete": "16 PL DES COLLIBERTS, 77185 LOGNES"
    },
    {
        "name": "SELARL PHARMACIE ROISSY 1",
        "lat": 49.0329,
        "lng": 2.58075,
        "telephone": "0148622410",
        "adresse_complete": "  AEROPORT ROISSY CDG CEDEX, 77990 MAUREGARD"
    },
    {
        "name": "PHARMACIE SAINT NICOLAS",
        "lat": 48.9593,
        "lng": 2.88173,
        "telephone": "0164340623",
        "adresse_complete": "16 RUE DU GENERAL LECLERC, 77100 MEAUX"
    },
    {
        "name": "SELARL PHARMACIE DE LA CATHEDRALE",
        "lat": 48.9597,
        "lng": 2.87931,
        "telephone": "0164340472",
        "adresse_complete": "1 RUE SAINT ETIENNE, 77100 MEAUX"
    },
    {
        "name": "PHARMACIE D'OFFICINE JAOUI",
        "lat": 48.5514,
        "lng": 2.64305,
        "telephone": "0160687100",
        "adresse_complete": " RUE GABRIEL HOUDART TUNC, 77000 MELUN"
    },
    {
        "name": "PHARMACIE  ROBERT",
        "lat": 48.5382,
        "lng": 2.65936,
        "telephone": "0164520086",
        "adresse_complete": "16 RUE SAINT ASPAIS, 77000 MELUN"
    },
    {
        "name": "PHARMACIE COTTARD",
        "lat": 48.5307,
        "lng": 2.65517,
        "telephone": "0164370271",
        "adresse_complete": "28 AVENUE THIERS, 77000 MELUN"
    },
    {
        "name": "PHARMACIE MANAUD PHILIPPE",
        "lat": 48.3006,
        "lng": 2.69933,
        "telephone": "0164284448",
        "adresse_complete": "2 RUE DU PARC, 77140 MONTCOURT FROMONVILLE"
    },
    {
        "name": "PHARMACIE MERCIER",
        "lat": 48.3979,
        "lng": 2.95282,
        "telephone": "0160963800",
        "adresse_complete": " AVENUE DE LA LIBERTE, 77130 MONTEREAU FAULT YONNE"
    },
    {
        "name": "PHARMACIE REGIONALE",
        "lat": 48.3853,
        "lng": 2.95682,
        "telephone": "0164329750",
        "adresse_complete": "40 RUE JEAN JAURES, 77130 MONTEREAU FAULT YONNE"
    },
    {
        "name": "PHARMACIE PRINCIPALE \"BRUN\"",
        "lat": 48.3835,
        "lng": 2.95529,
        "telephone": "0164320073",
        "adresse_complete": "89 RUE JEAN JAURES, 77130 MONTEREAU FAULT YONNE"
    },
    {
        "name": "PHARMACIE VICTOR HUGO",
        "lat": 48.3833,
        "lng": 2.95413,
        "telephone": "0164320059",
        "adresse_complete": "4 RUE VICTOR HUGO, 77130 MONTEREAU FAULT YONNE"
    },
    {
        "name": "PHARMACIE PAYEN-CHAVATTE",
        "lat": 48.8751,
        "lng": 2.74519,
        "telephone": "0160075508",
        "adresse_complete": "24 RUE DE L' EGLISE, 77144 MONTEVRAIN"
    },
    {
        "name": "PHARMACIE DE LA MAIRIE",
        "lat": 48.607,
        "lng": 2.89059,
        "telephone": "0164068111",
        "adresse_complete": "60 RUE CHARLES DE GAULLE, 77720 MORMANT"
    },
    {
        "name": "PHARMACIE THIL",
        "lat": 48.7879,
        "lng": 2.91661,
        "telephone": "0164043042",
        "adresse_complete": "74 RUE DU 27 AOUT, 77163 MORTCERF"
    },
    {
        "name": "PHARMACIE DES TOURNESOLS",
        "lat": 48.5872,
        "lng": 2.5724,
        "telephone": "0164411196",
        "adresse_complete": " AVENUE DES CHAMPS, 77176 NANDY"
    },
    {
        "name": "PHARMACIE DE L'EGLISE",
        "lat": 48.5563,
        "lng": 3.0138,
        "telephone": "0164080090",
        "adresse_complete": "1 RUE MAL DE LATTRE DE TASSIGNY, 77370 NANGIS"
    },
    {
        "name": "SARL PHARMACIE DE L'EGLISE",
        "lat": 48.2673,
        "lng": 2.69598,
        "telephone": "0164280046",
        "adresse_complete": "26 RUE DE PARIS, 77140 NEMOURS"
    },
    {
        "name": "PHARMACIE LE QUANG TAM",
        "lat": 48.8458,
        "lng": 2.62547,
        "telephone": "0160050992",
        "adresse_complete": "  COURS DU BUISSON, 77186 NOISIEL"
    },
    {
        "name": "PHARMACIE SPORTOUCH MURIEL",
        "lat": 48.8422,
        "lng": 2.61797,
        "telephone": "0160172464",
        "adresse_complete": "4 PL DU FRONT POPULAIRE, 77186 NOISIEL"
    },
    {
        "name": "PHARMACIE DE LA GARE",
        "lat": 48.8432,
        "lng": 2.61585,
        "telephone": "0160175700",
        "adresse_complete": "85 CRS DES ROCHES, 77186 NOISIEL"
    },
    {
        "name": "PHARMACIE DE LA GARE",
        "lat": 48.7708,
        "lng": 2.68934,
        "telephone": "0164401093",
        "adresse_complete": "9 PL ROGER NICOLAS, 77330 OZOIR LA FERRIERE"
    },
    {
        "name": "PHARM DUROYAUME ALAIN",
        "lat": 48.8812,
        "lng": 2.7042,
        "telephone": "0164303530",
        "adresse_complete": "2 RUE DE MARNE, 77400 POMPONNE"
    },
    {
        "name": "PHARMACIE DU BOUQUET",
        "lat": 48.7913,
        "lng": 2.60397,
        "telephone": "0164438026",
        "adresse_complete": "82 AVENUE CHARLES ROUXEL, 77340 PONTAULT COMBAULT"
    },
    {
        "name": "SELARL PHARMACIE SEICHA",
        "lat": 48.7863,
        "lng": 2.60331,
        "telephone": "0160284422",
        "adresse_complete": "2 AVENUE DE CARMINHA, 77340 PONTAULT COMBAULT"
    },
    {
        "name": "PHARM MOCQUAX ANNE-MARIE (FORUM SANTE)",
        "lat": 48.8059,
        "lng": 2.61623,
        "telephone": "0160285117",
        "adresse_complete": "5 AVENUE DE LA REPUBLIQUE, 77340 PONTAULT COMBAULT"
    },
    {
        "name": "PHARMACIE DE LA GARE",
        "lat": 48.7961,
        "lng": 2.6502,
        "telephone": "0160642288",
        "adresse_complete": "5 PL DE LA REVOLUTION, 77680 ROISSY EN BRIE"
    },
    {
        "name": "PHARM HAUY",
        "lat": 48.53,
        "lng": 2.54462,
        "telephone": "0160657096",
        "adresse_complete": "46 AVENUE DE FONTAINEBLEAU, 77310 ST FARGEAU PONTHIERRY"
    },
    {
        "name": "SNC PHARMACIE POISSON",
        "lat": 48.9511,
        "lng": 3.0202,
        "telephone": "0164359845",
        "adresse_complete": "15 RUE RAYMOND POINCARE, 77660 ST JEAN LES DEUX JUMEAUX"
    },
    {
        "name": "SELARL PHARMACIE DE LA GARE",
        "lat": 48.856,
        "lng": 2.7741,
        "telephone": "0164634499",
        "adresse_complete": "13 PL D'ARIANE, 77700 SERRIS"
    },
    {
        "name": "SELARL PHARMACIE ST SOUPPLETS",
        "lat": 49.0396,
        "lng": 2.80583,
        "telephone": "0160015039",
        "adresse_complete": "42 RUE DU GENERAL MAUNOURY, 77165 ST SOUPPLETS"
    },
    {
        "name": "PHARMACIE PLESSIS LA FORET",
        "lat": 48.6074,
        "lng": 2.55482,
        "telephone": "0160632607",
        "adresse_complete": " CTRE COMMERCIAL LES FONTAINES, 77176 SAVIGNY LE TEMPLE"
    },
    {
        "name": "EURL PHARMACIE DEHEEGHER",
        "lat": 48.5965,
        "lng": 2.58141,
        "telephone": "0164107949",
        "adresse_complete": "73 AVENUE LEON BLUM, 77176 SAVIGNY LE TEMPLE"
    },
    {
        "name": "PHARMACIE FORUM SANTE VAL D'EUROPE",
        "lat": 48.8567,
        "lng": 2.77962,
        "telephone": "0160431466",
        "adresse_complete": " CRS DU DANUBE, 77700 SERRIS"
    },
    {
        "name": "PHARMACIE DUTHEIL",
        "lat": 48.895,
        "lng": 2.70969,
        "telephone": "0164305107",
        "adresse_complete": "195 ROUTE DE CLAYE, 77400 THORIGNY SUR MARNE"
    },
    {
        "name": "PHARMACIE METAIS",
        "lat": 48.8507,
        "lng": 2.65113,
        "telephone": "0160052907",
        "adresse_complete": "51 RUE DE PARIS, 77200 TORCY"
    },
    {
        "name": "PHARM DES CAROUGES",
        "lat": 48.5259,
        "lng": 2.68296,
        "telephone": "0160687805",
        "adresse_complete": "11 RUE DES CAROUGES, 77000 VAUX LE PENIL"
    },
    {
        "name": "PHARMACIE LUC",
        "lat": 48.3769,
        "lng": 2.79731,
        "telephone": "0160708584",
        "adresse_complete": "59 AVENUE DE FONTAINEBLEAU, 77250 VENEUX LES SABLONS"
    },